[
  {
    "model": "students.IDType",
    "pk": 1,
    "fields": {
//      "id": "1",
      "name": "UNHCR Certificate"
    }
  },
  {
    "model": "students.IDType",
    "pk": 2,
    "fields": {
      "name": "Syrian Family Book"
    }
  },
  {
    "model": "students.IDType",
    "pk": 3,
    "fields": {
      "name": "National ID"
    }
  },
  {
    "model": "students.IDType",
    "pk": 4,
    "fields": {
      "name": "Syrian Passport"
    }
  },
  {
    "model": "students.IDType",
    "pk": 5,
    "fields": {
      "name": "No ID"
    }
  }
]




//[
//  {
//    "number": 648,
//    "Mohafaza": "Akkar",
//    "Caza": "Akkar",
//    "name": "Mashta Hasan Mixed public school",
//    "LATITUDE": 34.623366154,
//    "LONGITUDE": 36.322703633,
//    "ACS_CODE": 35437,
//    "CAD_CODE": 35046,
//    "ACS_NAME": "Machta Hammoud",
//    "SecondShift": "No"
//  },
//  {
//    "number": 649,
//    "Mohafaza": "Akkar",
//    "Caza": "Akkar",
//    "name": "Mashta Hasan Secondary public school",
//    "LATITUDE": 34.618699163,
//    "LONGITUDE": 36.323453598,
//    "ACS_CODE": 35437,
//    "CAD_CODE": 35046,
//    "ACS_NAME": "Machta Hammoud",
//    "SecondShift": "No"
//  },
//  {
//    "number": 650,
//    "Mohafaza": "Akkar",
//    "Caza": "Akkar",
//    "name": "Mashta Hammoud Mixed public school",
//    "LATITUDE": 34.630049107,
//    "LONGITUDE": 36.326187665,
//    "ACS_CODE": 35437,
//    "CAD_CODE": 35046,
//    "ACS_NAME": "Machta Hammoud",
//    "SecondShift": "Yes"
//  },
//  {
//    "number": 651,
//    "Mohafaza": "Akkar",
//    "Caza": "Akkar",
//    "name": "Al Mkaybleh Mixed Public School",
//    "LATITUDE": 34.644266165,
//    "LONGITUDE": 36.351020666,
//    "ACS_CODE": 35437,
//    "CAD_CODE": 35046,
//    "ACS_NAME": "Machta Hammoud",
//    "SecondShift": "No"
//  },
//  {
//    "number": 662,
//    "Mohafaza": "Akkar",
//    "Caza": "Akkar",
//    "name": "El Hisha Mixed Public School",
//    "LATITUDE": 34.636716112,
//    "LONGITUDE": 36.365120658,
//    "ACS_CODE": 35437,
//    "CAD_CODE": 35046,
//    "ACS_NAME": "Machta Hammoud",
//    "SecondShift": "Yes"
//  },
//  {
//    "number": 663,
//    "Mohafaza": "Akkar",
//    "Caza": "Akkar",
//    "name": "El Hisha Secondary Public School",
//    "LATITUDE": 34.637699164,
//    "LONGITUDE": 36.366187599,
//    "ACS_CODE": 35437,
//    "CAD_CODE": 35046,
//    "ACS_NAME": "Machta Hammoud",
//    "SecondShift": "No"
//  },
//  {
//    "number": 659,
//    "Mohafaza": "Akkar",
//    "Caza": "Akkar",
//    "name": "Kfartoun Mixed Public School",
//    "LATITUDE": 34.558416126,
//    "LONGITUDE": 36.359987699,
//    "ACS_CODE": 35516,
//    "CAD_CODE": "35168ND",
//    "ACS_NAME": "Mazareaa Jabal Akroum",
//    "SecondShift": "Yes"
//  },
//  {
//    "number": 523,
//    "Mohafaza": "Akkar",
//    "Caza": "Akkar",
//    "name": "Al Aarida Mixed Public School",
//    "LATITUDE": 34.633316089,
//    "LONGITUDE": 35.977053619,
//    "ACS_CODE": 35273,
//    "CAD_CODE": 35013,
//    "ACS_NAME": "AAridet Cheikh Zennad",
//    "SecondShift": "No"
//  },
//  {
//    "number": 524,
//    "Mohafaza": "Akkar",
//    "Caza": "Akkar",
//    "name": "El Simakiyah Mixed public school",
//    "LATITUDE": 34.638716143,
//    "LONGITUDE": 36.001737607,
//    "ACS_CODE": 35271,
//    "CAD_CODE": 35014,
//    "ACS_NAME": "Sammaqiye",
//    "SecondShift": "Yes"
//  },
//  {
//    "number": 653,
//    "Mohafaza": "Akkar",
//    "Caza": "Akkar",
//    "name": "El Rama Wadi Khaled Mixed public school",
//    "LATITUDE": 34.619716087,
//    "LONGITUDE": 36.378303606,
//    "ACS_CODE": 35512,
//    "CAD_CODE": "35162ND",
//    "ACS_NAME": "Aamayer",
//    "SecondShift": "Yes"
//  },
//  {
//    "number": 656,
//    "Mohafaza": "Akkar",
//    "Caza": "Akkar",
//    "name": "Rajm Hussein Mixed Public School",
//    "LATITUDE": 34.606782151,
//    "LONGITUDE": 36.385020709,
//    "ACS_CODE": 35512,
//    "CAD_CODE": "35162ND",
//    "ACS_NAME": "Aamayer",
//    "SecondShift": "Yes"
//  },
//  {
//    "number": 661,
//    "Mohafaza": "Akkar",
//    "Caza": "Akkar",
//    "name": "Rajam Issa Mixed Public School",
//    "LATITUDE": 34.623132128,
//    "LONGITUDE": 36.386053679,
//    "ACS_CODE": 35512,
//    "CAD_CODE": "35162ND",
//    "ACS_NAME": "Aamayer",
//    "SecondShift": "No"
//  },
//  {
//    "number": 574,
//    "Mohafaza": "Akkar",
//    "Caza": "Akkar",
//    "name": "Al Dbabiyeh Mixed Public School",
//    "LATITUDE": 34.622116133,
//    "LONGITUDE": 36.213820633,
//    "ACS_CODE": 35432,
//    "CAD_CODE": "35153ND",
//    "ACS_NAME": "Dibbabiye",
//    "SecondShift": "No"
//  },
//  {
//    "number": 513,
//    "Mohafaza": "Akkar",
//    "Caza": "Akkar",
//    "name": "El Sheikh Ayyash public school",
//    "LATITUDE": 34.627182078,
//    "LONGITUDE": 36.090453641,
//    "ACS_CODE": 35224,
//    "CAD_CODE": 35040,
//    "ACS_NAME": "Chir Hmairine",
//    "SecondShift": "Yes"
//  },
//  {
//    "number": 514,
//    "Mohafaza": "Akkar",
//    "Caza": "Akkar",
//    "name": "Sheer Hamayreen Mixed Intermediate public school - Akkar",
//    "LATITUDE": 34.618592146,
//    "LONGITUDE": 36.1172256,
//    "ACS_CODE": 35224,
//    "CAD_CODE": 35040,
//    "ACS_NAME": "Chir Hmairine",
//    "SecondShift": "No"
//  },
//  {
//    "number": 515,
//    "Mohafaza": "Akkar",
//    "Caza": "Akkar",
//    "name": "Tal Bireh Mixed public school",
//    "LATITUDE": 34.62217109,
//    "LONGITUDE": 36.05891683,
//    "ACS_CODE": 35235,
//    "CAD_CODE": 35044,
//    "ACS_NAME": "Tall Bire",
//    "SecondShift": "No"
//  },
//  {
//    "number": 575,
//    "Mohafaza": "Akkar",
//    "Caza": "Akkar",
//    "name": "Al Noura Mixed Public School",
//    "LATITUDE": 34.62544909,
//    "LONGITUDE": 36.186587612,
//    "ACS_CODE": 35445,
//    "CAD_CODE": 35126,
//    "ACS_NAME": "Noura Et-Tahta",
//    "SecondShift": "No"
//  },
//  {
//    "number": 654,
//    "Mohafaza": "Akkar",
//    "Caza": "Akkar",
//    "name": "Karha Mixed Public School",
//    "LATITUDE": 34.621582099,
//    "LONGITUDE": 36.443020695,
//    "ACS_CODE": 35518,
//    "CAD_CODE": "35150ND",
//    "ACS_NAME": "Qarha Aakkar",
//    "SecondShift": "No"
//  },
//  {
//    "number": 516,
//    "Mohafaza": "Akkar",
//    "Caza": "Akkar",
//    "name": "El Massoudiyeh Mixed public school",
//    "LATITUDE": 34.604382132,
//    "LONGITUDE": 36.050020635,
//    "ACS_CODE": 35229,
//    "CAD_CODE": 35045,
//    "ACS_NAME": "Massaaoudiye",
//    "SecondShift": "No"
//  },
//  {
//    "number": 521,
//    "Mohafaza": "Akkar",
//    "Caza": "Akkar",
//    "name": "Tal bibi Mixed Public School",
//    "LATITUDE": 34.617082143,
//    "LONGITUDE": 36.006487686,
//    "ACS_CODE": 35267,
//    "CAD_CODE": 35012,
//    "ACS_NAME": "Cheikh Zennad",
//    "SecondShift": "No"
//  },
//  {
//    "number": 572,
//    "Mohafaza": "Akkar",
//    "Caza": "Akkar",
//    "name": "El Fadel Intermediate public school - Rmah",
//    "LATITUDE": 34.621249099,
//    "LONGITUDE": 36.264253694,
//    "ACS_CODE": 35404,
//    "CAD_CODE": "35128ND",
//    "ACS_NAME": "Rmah",
//    "SecondShift": "No"
//  },
//  {
//    "number": 522,
//    "Mohafaza": "Akkar",
//    "Caza": "Akkar",
//    "name": "El Kanissa Mixed public school",
//    "LATITUDE": 34.618282103,
//    "LONGITUDE": 36.020687613,
//    "ACS_CODE": 35245,
//    "CAD_CODE": 35015,
//    "ACS_NAME": "Kneisset Aakkar",
//    "SecondShift": "No"
//  },
//  {
//    "number": 525,
//    "Mohafaza": "Akkar",
//    "Caza": "Akkar",
//    "name": "Hekr El Dahiri Mixed public school",
//    "LATITUDE": 34.618332072,
//    "LONGITUDE": 36.021737663,
//    "ACS_CODE": 35245,
//    "CAD_CODE": 35015,
//    "ACS_NAME": "Kneisset Aakkar",
//    "SecondShift": "No"
//  },
//  {
//    "number": 579,
//    "Mohafaza": "Akkar",
//    "Caza": "Akkar",
//    "name": "Amar Al Bekat Mixed Public School",
//    "LATITUDE": 34.609199128,
//    "LONGITUDE": 36.163870636,
//    "ACS_CODE": 35449,
//    "CAD_CODE": 35109,
//    "ACS_NAME": "Aamaret El-Baykat",
//    "SecondShift": "No"
//  },
//  {
//    "number": 577,
//    "Mohafaza": "Akkar",
//    "Caza": "Akkar",
//    "name": "Al Kawashra Mixed Public School",
//    "LATITUDE": 34.611416131,
//    "LONGITUDE": 36.21148769,
//    "ACS_CODE": 35429,
//    "CAD_CODE": 35111,
//    "ACS_NAME": "Kouachra",
//    "SecondShift": "Yes"
//  },
//  {
//    "number": 518,
//    "Mohafaza": "Akkar",
//    "Caza": "Akkar",
//    "name": "Talmeaan Mixed public school - Akkar",
//    "LATITUDE": 34.594999114,
//    "LONGITUDE": 36.040553693,
//    "ACS_CODE": 35231,
//    "CAD_CODE": 35017,
//    "ACS_NAME": "Tall Meaayan Tall Kiri",
//    "SecondShift": "No"
//  },
//  {
//    "number": 581,
//    "Mohafaza": "Akkar",
//    "Caza": "Akkar",
//    "name": "Wadi El Haour Mixed public school",
//    "LATITUDE": 34.610649147,
//    "LONGITUDE": 36.154003666,
//    "ACS_CODE": 35455,
//    "CAD_CODE": 35123,
//    "ACS_NAME": "Ouadi El-Haour",
//    "SecondShift": "No"
//  },
//  {
//    "number": 584,
//    "Mohafaza": "Akkar",
//    "Caza": "Akkar",
//    "name": "Hetla Mixed public school",
//    "LATITUDE": 34.602899113,
//    "LONGITUDE": 36.134603682,
//    "ACS_CODE": 35463,
//    "CAD_CODE": 35110,
//    "ACS_NAME": "Haytla",
//    "SecondShift": "No"
//  },
//  {
//    "number": 644,
//    "Mohafaza": "Akkar",
//    "Caza": "Akkar",
//    "name": "Aydamoun Mixed Public School",
//    "LATITUDE": 34.604449105,
//    "LONGITUDE": 36.285787698,
//    "ACS_CODE": 35486,
//    "CAD_CODE": 35088,
//    "ACS_NAME": "Mazraat En-Nahriye",
//    "SecondShift": "Yes"
//  },
//  {
//    "number": 519,
//    "Mohafaza": "Akkar",
//    "Caza": "Akkar",
//    "name": "Al Qlayaat Mixed Public School",
//    "LATITUDE": 34.586882099,
//    "LONGITUDE": 36.017853652,
//    "ACS_CODE": 35243,
//    "CAD_CODE": 35011,
//    "ACS_NAME": "Qleiaat Aakkar",
//    "SecondShift": "Yes"
//  },
//  {
//    "number": 583,
//    "Mohafaza": "Akkar",
//    "Caza": "Akkar",
//    "name": "El Talil Mixed public school",
//    "LATITUDE": 34.597099118,
//    "LONGITUDE": 36.140837635,
//    "ACS_CODE": 35459,
//    "CAD_CODE": 35108,
//    "ACS_NAME": "Tleil",
//    "SecondShift": "No"
//  },
//  {
//    "number": 655,
//    "Mohafaza": "Akkar",
//    "Caza": "Akkar",
//    "name": "El Kenayset Mixed Public School",
//    "LATITUDE": 34.602532146,
//    "LONGITUDE": 36.441803673,
//    "ACS_CODE": 35515,
//    "CAD_CODE": "35140ND",
//    "ACS_NAME": "Kneisset Hnaider",
//    "SecondShift": "No"
//  },
//  {
//    "number": 589,
//    "Mohafaza": "Akkar",
//    "Caza": "Akkar",
//    "name": "Al Bireh Mixed Public School",
//    "LATITUDE": 34.586816095,
//    "LONGITUDE": 36.232637603,
//    "ACS_CODE": 35416,
//    "CAD_CODE": "35135ND",
//    "ACS_NAME": "Biret Aakkar",
//    "SecondShift": "Yes"
//  },
//  {
//    "number": 590,
//    "Mohafaza": "Akkar",
//    "Caza": "Akkar",
//    "name": "Al Bireh Secondary Public School",
//    "LATITUDE": 34.587349162,
//    "LONGITUDE": 36.231337598,
//    "ACS_CODE": 35416,
//    "CAD_CODE": "35135ND",
//    "ACS_NAME": "Biret Aakkar",
//    "SecondShift": "No"
//  },
//  {
//    "number": 509,
//    "Mohafaza": "Akkar",
//    "Caza": "Akkar",
//    "name": "Rafic Hariri Public School in Tal Abbas Al Gharbi",
//    "LATITUDE": 34.582482121,
//    "LONGITUDE": 36.076970695,
//    "ACS_CODE": 35211,
//    "CAD_CODE": 35034,
//    "ACS_NAME": "Tall Aabbas El-Gharbi",
//    "SecondShift": "No"
//  },
//  {
//    "number": 517,
//    "Mohafaza": "Akkar",
//    "Caza": "Akkar",
//    "name": "El Hissa Mixed public school",
//    "LATITUDE": 34.595519078,
//    "LONGITUDE": 36.061592691,
//    "ACS_CODE": 35211,
//    "CAD_CODE": 35034,
//    "ACS_NAME": "Tall Aabbas El-Gharbi",
//    "SecondShift": "No"
//  },
//  {
//    "number": 587,
//    "Mohafaza": "Akkar",
//    "Caza": "Akkar",
//    "name": "Ain El Zeit Mixed Public School",
//    "LATITUDE": 34.590116151,
//    "LONGITUDE": 36.201687656,
//    "ACS_CODE": 35427,
//    "CAD_CODE": 35112,
//    "ACS_NAME": "Aain Ez-Zeit",
//    "SecondShift": "No"
//  },
//  {
//    "number": 588,
//    "Mohafaza": "Akkar",
//    "Caza": "Akkar",
//    "name": "Kherbet Daoud Mixed Public School",
//    "LATITUDE": 34.586016094,
//    "LONGITUDE": 36.223020628,
//    "ACS_CODE": 35417,
//    "CAD_CODE": 35118,
//    "ACS_NAME": "Khirbet Daoud Aakkar",
//    "SecondShift": "Yes"
//  },
//  {
//    "number": 527,
//    "Mohafaza": "Akkar",
//    "Caza": "Akkar",
//    "name": "Hekr Al Hawshab Mixed Public School",
//    "LATITUDE": 34.588899124,
//    "LONGITUDE": 36.093737706,
//    "ACS_CODE": 35219,
//    "CAD_CODE": 35115,
//    "ACS_NAME": "Haouchab",
//    "SecondShift": "Yes"
//  },
//  {
//    "number": 635,
//    "Mohafaza": "Akkar",
//    "Caza": "Akkar",
//    "name": "El Kobayat Secondary public school",
//    "LATITUDE": 34.565916163,
//    "LONGITUDE": 36.285770598,
//    "ACS_CODE": 35487,
//    "CAD_CODE": 35078,
//    "ACS_NAME": "Qbaiyat Aakkar",
//    "SecondShift": "No"
//  },
//  {
//    "number": 636,
//    "Mohafaza": "Akkar",
//    "Caza": "Akkar",
//    "name": "Kobayat El Zouk Mixed Public School",
//    "LATITUDE": 34.570366157,
//    "LONGITUDE": 36.284987639,
//    "ACS_CODE": 35487,
//    "CAD_CODE": 35078,
//    "ACS_NAME": "Qbaiyat Aakkar",
//    "SecondShift": "No"
//  },
//  {
//    "number": 637,
//    "Mohafaza": "Akkar",
//    "Caza": "Akkar",
//    "name": "Kobayat Public Kindergarten",
//    "LATITUDE": 34.563666086,
//    "LONGITUDE": 36.282037633,
//    "ACS_CODE": 35487,
//    "CAD_CODE": 35078,
//    "ACS_NAME": "Qbaiyat Aakkar",
//    "SecondShift": "No"
//  },
//  {
//    "number": 511,
//    "Mohafaza": "Akkar",
//    "Caza": "Akkar",
//    "name": "Al Rihaniyeh Mixed Public School",
//    "LATITUDE": 34.583699103,
//    "LONGITUDE": 36.117687633,
//    "ACS_CODE": 35467,
//    "CAD_CODE": 35101,
//    "ACS_NAME": "Rihaniyet Aakkar",
//    "SecondShift": "No"
//  },
//  {
//    "number": 526,
//    "Mohafaza": "Akkar",
//    "Caza": "Akkar",
//    "name": "Balannet Hisa Mixed Public School",
//    "LATITUDE": 34.579078522,
//    "LONGITUDE": 36.047787732,
//    "ACS_CODE": 35227,
//    "CAD_CODE": 35031,
//    "ACS_NAME": "Sammouniye",
//    "SecondShift": "Yes"
//  },
//  {
//    "number": 585,
//    "Mohafaza": "Akkar",
//    "Caza": "Akkar",
//    "name": "Kherbet Shar Mixed public school",
//    "LATITUDE": 34.583333074,
//    "LONGITUDE": 36.192446687,
//    "ACS_CODE": 35425,
//    "CAD_CODE": 35122,
//    "ACS_NAME": "Bsatine Aakkar",
//    "SecondShift": "No"
//  },
//  {
//    "number": 640,
//    "Mohafaza": "Akkar",
//    "Caza": "Akkar",
//    "name": "Al Sindyaneh Mixed Public School",
//    "LATITUDE": 34.577382085,
//    "LONGITUDE": 36.244087653,
//    "ACS_CODE": 35411,
//    "CAD_CODE": 35113,
//    "ACS_NAME": "Sindianet Zeidane",
//    "SecondShift": "No"
//  },
//  {
//    "number": 520,
//    "Mohafaza": "Akkar",
//    "Caza": "Akkar",
//    "name": "El Sheikh Zanad Mixed public school",
//    "LATITUDE": 34.563632082,
//    "LONGITUDE": 35.993153632,
//    "ACS_CODE": 35261,
//    "CAD_CODE": 35009,
//    "ACS_NAME": "Mqaiteaa",
//    "SecondShift": "No"
//  },
//  {
//    "number": 510,
//    "Mohafaza": "Akkar",
//    "Caza": "Akkar",
//    "name": "Al Kwaykhat Mixed Public School",
//    "LATITUDE": 34.575397125,
//    "LONGITUDE": 36.09220563,
//    "ACS_CODE": 35216,
//    "CAD_CODE": 35033,
//    "ACS_NAME": "Khreibet Ej-Jindi",
//    "SecondShift": "No"
//  },
//  {
//    "number": 536,
//    "Mohafaza": "Akkar",
//    "Caza": "Akkar",
//    "name": "Khraybet El Jundi Mixed public school",
//    "LATITUDE": 34.559432111,
//    "LONGITUDE": 36.094253675,
//    "ACS_CODE": 35216,
//    "CAD_CODE": 35033,
//    "ACS_NAME": "Khreibet Ej-Jindi",
//    "SecondShift": "No"
//  },
//  {
//    "number": 537,
//    "Mohafaza": "Akkar",
//    "Caza": "Akkar",
//    "name": "Beit El Hajj Kousha Mixed public school",
//    "LATITUDE": 34.561649082,
//    "LONGITUDE": 36.102537703,
//    "ACS_CODE": 35216,
//    "CAD_CODE": 35033,
//    "ACS_NAME": "Khreibet Ej-Jindi",
//    "SecondShift": "Yes"
//  },
//  {
//    "number": 528,
//    "Mohafaza": "Akkar",
//    "Caza": "Akkar",
//    "name": "Halba public school for Boys",
//    "LATITUDE": 34.544899154,
//    "LONGITUDE": 36.077203694,
//    "ACS_CODE": 35111,
//    "CAD_CODE": 35030,
//    "ACS_NAME": "Halba",
//    "SecondShift": "Yes"
//  },
//  {
//    "number": 531,
//    "Mohafaza": "Akkar",
//    "Caza": "Akkar",
//    "name": "Halba Mixed Public Kindergarten",
//    "LATITUDE": 34.542682091,
//    "LONGITUDE": 36.078670649,
//    "ACS_CODE": 35111,
//    "CAD_CODE": 35030,
//    "ACS_NAME": "Halba",
//    "SecondShift": "No"
//  },
//  {
//    "number": 591,
//    "Mohafaza": "Akkar",
//    "Caza": "Akkar",
//    "name": "Mazraat Baldeh Mixed Public School",
//    "LATITUDE": 34.560732088,
//    "LONGITUDE": 36.146503673,
//    "ACS_CODE": 35158,
//    "CAD_CODE": "35201ND",
//    "ACS_NAME": "Balde WaMazraatBalde",
//    "SecondShift": "No"
//  },
//  {
//    "number": 614,
//    "Mohafaza": "Akkar",
//    "Caza": "Akkar",
//    "name": "Qaws Akkar Mixed Public School",
//    "LATITUDE": 34.531299145,
//    "LONGITUDE": 36.224003629,
//    "ACS_CODE": 35191,
//    "CAD_CODE": 35085,
//    "ACS_NAME": "Aakkar El-Aatiqa",
//    "SecondShift": "No"
//  },
//  {
//    "number": 615,
//    "Mohafaza": "Akkar",
//    "Caza": "Akkar",
//    "name": "Akkar Al Aatika Mixed Public School",
//    "LATITUDE": 34.525882137,
//    "LONGITUDE": 36.238820695,
//    "ACS_CODE": 35191,
//    "CAD_CODE": 35085,
//    "ACS_NAME": "Aakkar El-Aatiqa",
//    "SecondShift": "Yes"
//  },
//  {
//    "number": 616,
//    "Mohafaza": "Akkar",
//    "Caza": "Akkar",
//    "name": "Akkar Al Aatika Secondary Public School",
//    "LATITUDE": 34.525982162,
//    "LONGITUDE": 36.239037599,
//    "ACS_CODE": 35191,
//    "CAD_CODE": 35085,
//    "ACS_NAME": "Aakkar El-Aatiqa",
//    "SecondShift": "No"
//  },
//  {
//    "number": 617,
//    "Mohafaza": "Akkar",
//    "Caza": "Akkar",
//    "name": "Al Marahat Akkar Mixed Public School",
//    "LATITUDE": 34.545899128,
//    "LONGITUDE": 36.241770685,
//    "ACS_CODE": 35191,
//    "CAD_CODE": 35085,
//    "ACS_NAME": "Aakkar El-Aatiqa",
//    "SecondShift": "No"
//  },
//  {
//    "number": 593,
//    "Mohafaza": "Akkar",
//    "Caza": "Akkar",
//    "name": "Al Souwayseh Mixed Public School",
//    "LATITUDE": 34.553299144,
//    "LONGITUDE": 36.119637601,
//    "ACS_CODE": 35143,
//    "CAD_CODE": 35096,
//    "ACS_NAME": "Souaisset Aakkar",
//    "SecondShift": "No"
//  },
//  {
//    "number": 613,
//    "Mohafaza": "Akkar",
//    "Caza": "Akkar",
//    "name": "El Dora Mixed Public School",
//    "LATITUDE": 34.534599123,
//    "LONGITUDE": 36.217287698,
//    "ACS_CODE": 35126,
//    "CAD_CODE": "35200ND",
//    "ACS_NAME": "Daouret Aakkar",
//    "SecondShift": "No"
//  },
//  {
//    "number": 534,
//    "Mohafaza": "Akkar",
//    "Caza": "Akkar",
//    "name": "Sheikh Mohammed Mixed Public School",
//    "LATITUDE": 34.549432125,
//    "LONGITUDE": 36.086020694,
//    "ACS_CODE": 35113,
//    "CAD_CODE": 35032,
//    "ACS_NAME": "Cheikh Mohammad",
//    "SecondShift": "No"
//  },
//  {
//    "number": 600,
//    "Mohafaza": "Akkar",
//    "Caza": "Akkar",
//    "name": "Haizouk Mixed Public School",
//    "LATITUDE": 34.549211071,
//    "LONGITUDE": 36.133337603,
//    "ACS_CODE": 35139,
//    "CAD_CODE": 35083,
//    "ACS_NAME": "Hayzouq",
//    "SecondShift": "No"
//  },
//  {
//    "number": 535,
//    "Mohafaza": "Akkar",
//    "Caza": "Akkar",
//    "name": "Kroum Al Arab Mixed public school",
//    "LATITUDE": 34.553816083,
//    "LONGITUDE": 36.092770617,
//    "ACS_CODE": 35119,
//    "CAD_CODE": 35100,
//    "ACS_NAME": "Kroum El-Aarab",
//    "SecondShift": "No"
//  },
//  {
//    "number": 606,
//    "Mohafaza": "Akkar",
//    "Caza": "Akkar",
//    "name": "Bayno Mixed Public School",
//    "LATITUDE": 34.538716075,
//    "LONGITUDE": 36.174770668,
//    "ACS_CODE": 35175,
//    "CAD_CODE": 35075,
//    "ACS_NAME": "Beino",
//    "SecondShift": "No"
//  },
//  {
//    "number": 599,
//    "Mohafaza": "Akkar",
//    "Caza": "Akkar",
//    "name": "Mashha Mixed Public School",
//    "LATITUDE": 34.538232104,
//    "LONGITUDE": 36.108970634,
//    "ACS_CODE": 35137,
//    "CAD_CODE": 35082,
//    "ACS_NAME": "Machha",
//    "SecondShift": "No"
//  },
//  {
//    "number": 539,
//    "Mohafaza": "Akkar",
//    "Caza": "Akkar",
//    "name": "Jdaidet Al Joumeh Intermediate Public School",
//    "LATITUDE": 34.537149156,
//    "LONGITUDE": 36.065953637,
//    "ACS_CODE": 35125,
//    "CAD_CODE": 35028,
//    "ACS_NAME": "Jdidet Ej-Joumeh",
//    "SecondShift": "No"
//  },
//  {
//    "number": 542,
//    "Mohafaza": "Akkar",
//    "Caza": "Akkar",
//    "name": "Minyarah public school for Girls",
//    "LATITUDE": 34.532949081,
//    "LONGITUDE": 36.064203673,
//    "ACS_CODE": 35125,
//    "CAD_CODE": 35028,
//    "ACS_NAME": "Jdidet Ej-Joumeh",
//    "SecondShift": "No"
//  },
//  {
//    "number": 543,
//    "Mohafaza": "Akkar",
//    "Caza": "Akkar",
//    "name": "Minyarah Secondary public school",
//    "LATITUDE": 34.53309716,
//    "LONGITUDE": 36.063732596,
//    "ACS_CODE": 35125,
//    "CAD_CODE": 35028,
//    "ACS_NAME": "Jdidet Ej-Joumeh",
//    "SecondShift": "No"
//  },
//  {
//    "number": 597,
//    "Mohafaza": "Akkar",
//    "Caza": "Akkar",
//    "name": "Dahr El Laysineh Mixed Public School",
//    "LATITUDE": 34.536082131,
//    "LONGITUDE": 36.142803667,
//    "ACS_CODE": 35155,
//    "CAD_CODE": 35067,
//    "ACS_NAME": "Dahr Laissine",
//    "SecondShift": "No"
//  },
//  {
//    "number": 541,
//    "Mohafaza": "Akkar",
//    "Caza": "Akkar",
//    "name": "Doctor Yaaqoub As Sarraf Public School",
//    "LATITUDE": 34.530549096,
//    "LONGITUDE": 36.061837626,
//    "ACS_CODE": 35129,
//    "CAD_CODE": 35027,
//    "ACS_NAME": "Minyara",
//    "SecondShift": "No"
//  },
//  {
//    "number": 544,
//    "Mohafaza": "Akkar",
//    "Caza": "Akkar",
//    "name": "Karm Asfour Mixed Elementary Public School",
//    "LATITUDE": 34.529039109,
//    "LONGITUDE": 36.059777643,
//    "ACS_CODE": 35129,
//    "CAD_CODE": 35027,
//    "ACS_NAME": "Minyara",
//    "SecondShift": "No"
//  },
//  {
//    "number": 530,
//    "Mohafaza": "Akkar",
//    "Caza": "Akkar",
//    "name": "Halba Secondary public school",
//    "LATITUDE": 34.54218216,
//    "LONGITUDE": 36.074520597,
//    "ACS_CODE": 35123,
//    "CAD_CODE": 35048,
//    "ACS_NAME": "Cheikh Taba",
//    "SecondShift": "No"
//  },
//  {
//    "number": 538,
//    "Mohafaza": "Akkar",
//    "Caza": "Akkar",
//    "name": "El Sheikh Taba Mixed public school",
//    "LATITUDE": 34.534257163,
//    "LONGITUDE": 36.077486703,
//    "ACS_CODE": 35123,
//    "CAD_CODE": 35048,
//    "ACS_NAME": "Cheikh Taba",
//    "SecondShift": "No"
//  },
//  {
//    "number": 560,
//    "Mohafaza": "Akkar",
//    "Caza": "Akkar",
//    "name": "Kebet Shamrah Mixed public school",
//    "LATITUDE": 34.540881935,
//    "LONGITUDE": 36.007403688,
//    "ACS_CODE": 35265,
//    "CAD_CODE": 35005,
//    "ACS_NAME": "Aamaret Aakkar",
//    "SecondShift": "Yes"
//  },
//  {
//    "number": 532,
//    "Mohafaza": "Akkar",
//    "Caza": "Akkar",
//    "name": "Adbel Mixed Public School",
//    "LATITUDE": 34.531999137,
//    "LONGITUDE": 36.098503638,
//    "ACS_CODE": 35117,
//    "CAD_CODE": 35065,
//    "ACS_NAME": "Idbil",
//    "SecondShift": "No"
//  },
//  {
//    "number": 603,
//    "Mohafaza": "Akkar",
//    "Caza": "Akkar",
//    "name": "El Ouyoun Secondary Public School",
//    "LATITUDE": 34.526832162,
//    "LONGITUDE": 36.171487598,
//    "ACS_CODE": 35177,
//    "CAD_CODE": 35070,
//    "ACS_NAME": "Aayoun Aakkar",
//    "SecondShift": "No"
//  },
//  {
//    "number": 559,
//    "Mohafaza": "Akkar",
//    "Caza": "Akkar",
//    "name": "Borj El Arab Mixed public school",
//    "LATITUDE": 34.52234916,
//    "LONGITUDE": 36.002987661,
//    "ACS_CODE": 35149,
//    "CAD_CODE": 35022,
//    "ACS_NAME": "Deir Dalloum",
//    "SecondShift": "No"
//  },
//  {
//    "number": 570,
//    "Mohafaza": "Akkar",
//    "Caza": "Akkar",
//    "name": "Arab El Mafrak Mixed public school",
//    "LATITUDE": 34.522866146,
//    "LONGITUDE": 36.010003647,
//    "ACS_CODE": 35149,
//    "CAD_CODE": 35022,
//    "ACS_NAME": "Deir Dalloum",
//    "SecondShift": "No"
//  },
//  {
//    "number": 601,
//    "Mohafaza": "Akkar",
//    "Caza": "Akkar",
//    "name": "Rafic El Hariri Public School - Tekrit",
//    "LATITUDE": 34.518166105,
//    "LONGITUDE": 36.159120649,
//    "ACS_CODE": 35171,
//    "CAD_CODE": 35062,
//    "ACS_NAME": "Tikrit",
//    "SecondShift": "Yes"
//  },
//  {
//    "number": 610,
//    "Mohafaza": "Akkar",
//    "Caza": "Akkar",
//    "name": "Ain Yaacoub Mixed Public School",
//    "LATITUDE": 34.522866142,
//    "LONGITUDE": 36.198253604,
//    "ACS_CODE": 35187,
//    "CAD_CODE": 35087,
//    "ACS_NAME": "Aain Yaaqoub",
//    "SecondShift": "No"
//  },
//  {
//    "number": 546,
//    "Mohafaza": "Akkar",
//    "Caza": "Akkar",
//    "name": "Hakour Mixed Public School",
//    "LATITUDE": 34.524924151,
//    "LONGITUDE": 36.05508561,
//    "ACS_CODE": 35131,
//    "CAD_CODE": 35059,
//    "ACS_NAME": "Hakour",
//    "SecondShift": "No"
//  },
//  {
//    "number": 612,
//    "Mohafaza": "Akkar",
//    "Caza": "Akkar",
//    "name": "El Borj Mixed Public School",
//    "LATITUDE": 34.530449135,
//    "LONGITUDE": 36.189870702,
//    "ACS_CODE": 35181,
//    "CAD_CODE": 35091,
//    "ACS_NAME": "Chaqdouf",
//    "SecondShift": "No"
//  },
//  {
//    "number": 545,
//    "Mohafaza": "Akkar",
//    "Caza": "Akkar",
//    "name": "Al Kantara Mixed Public School",
//    "LATITUDE": 34.5199321,
//    "LONGITUDE": 36.073220604,
//    "ACS_CODE": 35135,
//    "CAD_CODE": 35063,
//    "ACS_NAME": "Qantarat Aakkar",
//    "SecondShift": "No"
//  },
//  {
//    "number": 554,
//    "Mohafaza": "Akkar",
//    "Caza": "Akkar",
//    "name": "Martyr Rafic Hariri Secondary Public School- Bebnine Akkar",
//    "LATITUDE": 34.503866159,
//    "LONGITUDE": 35.988403596,
//    "ACS_CODE": 35275,
//    "CAD_CODE": 35003,
//    "ACS_NAME": "Bebnine",
//    "SecondShift": "No"
//  },
//  {
//    "number": 555,
//    "Mohafaza": "Akkar",
//    "Caza": "Akkar",
//    "name": "Bebnine Akkar public school for Boys",
//    "LATITUDE": 34.501882143,
//    "LONGITUDE": 35.991037656,
//    "ACS_CODE": 35275,
//    "CAD_CODE": 35003,
//    "ACS_NAME": "Bebnine",
//    "SecondShift": "No"
//  },
//  {
//    "number": 556,
//    "Mohafaza": "Akkar",
//    "Caza": "Akkar",
//    "name": "Bebnine Public School for Girls",
//    "LATITUDE": 34.497366089,
//    "LONGITUDE": 35.995220697,
//    "ACS_CODE": 35275,
//    "CAD_CODE": 35003,
//    "ACS_NAME": "Bebnine",
//    "SecondShift": "No"
//  },
//  {
//    "number": 557,
//    "Mohafaza": "Akkar",
//    "Caza": "Akkar",
//    "name": "Bebnine Mixed Public Kindergarten",
//    "LATITUDE": 34.497466107,
//    "LONGITUDE": 35.99635362,
//    "ACS_CODE": 35275,
//    "CAD_CODE": 35003,
//    "ACS_NAME": "Bebnine",
//    "SecondShift": "No"
//  },
//  {
//    "number": 558,
//    "Mohafaza": "Akkar",
//    "Caza": "Akkar",
//    "name": "Al Aabdeh Mixed Public School",
//    "LATITUDE": 34.518366123,
//    "LONGITUDE": 35.983553628,
//    "ACS_CODE": 35275,
//    "CAD_CODE": 35003,
//    "ACS_NAME": "Bebnine",
//    "SecondShift": "No"
//  },
//  {
//    "number": 608,
//    "Mohafaza": "Akkar",
//    "Caza": "Akkar",
//    "name": "Bazbina Mixed Public School",
//    "LATITUDE": 34.51813213,
//    "LONGITUDE": 36.185620664,
//    "ACS_CODE": 35189,
//    "CAD_CODE": 35079,
//    "ACS_NAME": "Bezbina",
//    "SecondShift": "No"
//  },
//  {
//    "number": 609,
//    "Mohafaza": "Akkar",
//    "Caza": "Akkar",
//    "name": "Bazbina Kindergartens Public School",
//    "LATITUDE": 34.517899157,
//    "LONGITUDE": 36.187353613,
//    "ACS_CODE": 35189,
//    "CAD_CODE": 35079,
//    "ACS_NAME": "Bezbina",
//    "SecondShift": "No"
//  },
//  {
//    "number": 547,
//    "Mohafaza": "Akkar",
//    "Caza": "Akkar",
//    "name": "Bkarzla Mixed Public School",
//    "LATITUDE": 34.512632157,
//    "LONGITUDE": 36.055970674,
//    "ACS_CODE": 35147,
//    "CAD_CODE": 35058,
//    "ACS_NAME": "Bqerzla",
//    "SecondShift": "No"
//  },
//  {
//    "number": 571,
//    "Mohafaza": "Akkar",
//    "Caza": "Akkar",
//    "name": "Wadi Al Rayhan Mixed public school",
//    "LATITUDE": 34.513899085,
//    "LONGITUDE": 36.016870689,
//    "ACS_CODE": 35167,
//    "CAD_CODE": 35023,
//    "ACS_NAME": "Mar Touma",
//    "SecondShift": "No"
//  },
//  {
//    "number": 561,
//    "Mohafaza": "Akkar",
//    "Caza": "Akkar",
//    "name": "Wadi Al Jamous Mixed public school",
//    "LATITUDE": 34.499116126,
//    "LONGITUDE": 36.012220678,
//    "ACS_CODE": 35364,
//    "CAD_CODE": 35004,
//    "ACS_NAME": "Ouadi El-Jamous",
//    "SecondShift": "No"
//  },
//  {
//    "number": 550,
//    "Mohafaza": "Akkar",
//    "Caza": "Akkar",
//    "name": "Deir Dalloum Mixed public school",
//    "LATITUDE": 34.518810139,
//    "LONGITUDE": 36.028121661,
//    "ACS_CODE": 35161,
//    "CAD_CODE": 35025,
//    "ACS_NAME": "Zouq El-Moqachrine",
//    "SecondShift": "No"
//  },
//  {
//    "number": 594,
//    "Mohafaza": "Akkar",
//    "Caza": "Akkar",
//    "name": "Rahbeh Public School for Boys",
//    "LATITUDE": 34.50729913,
//    "LONGITUDE": 36.145770625,
//    "ACS_CODE": 35357,
//    "CAD_CODE": 35068,
//    "ACS_NAME": "Rahbe",
//    "SecondShift": "No"
//  },
//  {
//    "number": 595,
//    "Mohafaza": "Akkar",
//    "Caza": "Akkar",
//    "name": "Rahbeh Public School for Girls",
//    "LATITUDE": 34.502699119,
//    "LONGITUDE": 36.147870684,
//    "ACS_CODE": 35357,
//    "CAD_CODE": 35068,
//    "ACS_NAME": "Rahbe",
//    "SecondShift": "No"
//  },
//  {
//    "number": 596,
//    "Mohafaza": "Akkar",
//    "Caza": "Akkar",
//    "name": "Rahbeh Secondary Public School",
//    "LATITUDE": 34.50739916,
//    "LONGITUDE": 36.145770598,
//    "ACS_CODE": 35357,
//    "CAD_CODE": 35068,
//    "ACS_NAME": "Rahbe",
//    "SecondShift": "No"
//  },
//  {
//    "number": 842,
//    "Mohafaza": "Baalbeck-Hermel",
//    "Caza": "El Hermel",
//    "name": "Sahlat Al Maa Intermediate Public School",
//    "LATITUDE": 34.4857491,
//    "LONGITUDE": 36.371520633,
//    "ACS_CODE": 54127,
//    "CAD_CODE": 54002,
//    "ACS_NAME": "Charbine El-Hermel",
//    "SecondShift": "No"
//  },
//  {
//    "number": 453,
//    "Mohafaza": "North",
//    "Caza": "El Minieh-Dennie",
//    "name": "Bhannine Mixed Public School",
//    "LATITUDE": 34.494899136,
//    "LONGITUDE": 35.948670664,
//    "ACS_CODE": 37291,
//    "CAD_CODE": 37021,
//    "ACS_NAME": "Zouq Bhannine",
//    "SecondShift": "No"
//  },
//  {
//    "number": 634,
//    "Mohafaza": "Akkar",
//    "Caza": "Akkar",
//    "name": "El Hwaysh Mixed public school",
//    "LATITUDE": 34.498899082,
//    "LONGITUDE": 36.11607062,
//    "ACS_CODE": 35322,
//    "CAD_CODE": "35202ND",
//    "ACS_NAME": "Houaich",
//    "SecondShift": "No"
//  },
//  {
//    "number": 562,
//    "Mohafaza": "Akkar",
//    "Caza": "Akkar",
//    "name": "El Karkaf Mixed public school",
//    "LATITUDE": 34.482599126,
//    "LONGITUDE": 36.019070687,
//    "ACS_CODE": 35314,
//    "CAD_CODE": 35051,
//    "ACS_NAME": "Berqayel",
//    "SecondShift": "No"
//  },
//  {
//    "number": 564,
//    "Mohafaza": "Akkar",
//    "Caza": "Akkar",
//    "name": "Barqayel Mixed Public School",
//    "LATITUDE": 34.483099114,
//    "LONGITUDE": 36.032970659,
//    "ACS_CODE": 35314,
//    "CAD_CODE": 35051,
//    "ACS_NAME": "Berqayel",
//    "SecondShift": "Yes"
//  },
//  {
//    "number": 565,
//    "Mohafaza": "Akkar",
//    "Caza": "Akkar",
//    "name": "Birkayel Secondary public school",
//    "LATITUDE": 34.480299159,
//    "LONGITUDE": 36.031470598,
//    "ACS_CODE": 35314,
//    "CAD_CODE": 35051,
//    "ACS_NAME": "Berqayel",
//    "SecondShift": "No"
//  },
//  {
//    "number": 552,
//    "Mohafaza": "Akkar",
//    "Caza": "Akkar",
//    "name": "Majdala Mixed Public School",
//    "LATITUDE": 34.500399126,
//    "LONGITUDE": 36.03632065,
//    "ACS_CODE": 35354,
//    "CAD_CODE": 35056,
//    "ACS_NAME": "Majdala",
//    "SecondShift": "No"
//  },
//  {
//    "number": 551,
//    "Mohafaza": "Akkar",
//    "Caza": "Akkar",
//    "name": "Zouk El Habalissah Mixed public school",
//    "LATITUDE": 34.49228212,
//    "LONGITUDE": 36.049987663,
//    "ACS_CODE": 35331,
//    "CAD_CODE": 35057,
//    "ACS_NAME": "Hmaire Aakkar",
//    "SecondShift": "Yes"
//  },
//  {
//    "number": 548,
//    "Mohafaza": "Akkar",
//    "Caza": "Akkar",
//    "name": "Al Moubarakiyeh Mixed public school",
//    "LATITUDE": 34.490494074,
//    "LONGITUDE": 36.06922968,
//    "ACS_CODE": 35318,
//    "CAD_CODE": "35158ND",
//    "ACS_NAME": "Dinbou",
//    "SecondShift": "No"
//  },
//  {
//    "number": 549,
//    "Mohafaza": "Akkar",
//    "Caza": "Akkar",
//    "name": "Danbo Mixed Public School",
//    "LATITUDE": 34.48356611,
//    "LONGITUDE": 36.087370606,
//    "ACS_CODE": 35318,
//    "CAD_CODE": "35158ND",
//    "ACS_NAME": "Dinbou",
//    "SecondShift": "No"
//  },
//  {
//    "number": 841,
//    "Mohafaza": "Baalbeck-Hermel",
//    "Caza": "El Hermel",
//    "name": "El Kassr public school",
//    "LATITUDE": 34.486716117,
//    "LONGITUDE": 36.414670701,
//    "ACS_CODE": 54111,
//    "CAD_CODE": 54001,
//    "ACS_NAME": "Hermel",
//    "SecondShift": "No"
//  },
//  {
//    "number": 843,
//    "Mohafaza": "Baalbeck-Hermel",
//    "Caza": "El Hermel",
//    "name": "El Hariqa Intermediate Public School",
//    "LATITUDE": 34.42735398,
//    "LONGITUDE": 36.40848078,
//    "ACS_CODE": 54111,
//    "CAD_CODE": 54001,
//    "ACS_NAME": "Hermel",
//    "SecondShift": "No"
//  },
//  {
//    "number": 857,
//    "Mohafaza": "Baalbeck-Hermel",
//    "Caza": "El Hermel",
//    "name": "El Bouwaydah Public school",
//    "LATITUDE": 34.456249101,
//    "LONGITUDE": 36.490287628,
//    "ACS_CODE": 54111,
//    "CAD_CODE": 54001,
//    "ACS_NAME": "Hermel",
//    "SecondShift": "No"
//  },
//  {
//    "number": 858,
//    "Mohafaza": "Baalbeck-Hermel",
//    "Caza": "El Hermel",
//    "name": "Hosh El Sayed Ali public school",
//    "LATITUDE": 34.398932098,
//    "LONGITUDE": 36.381187614,
//    "ACS_CODE": 54111,
//    "CAD_CODE": 54001,
//    "ACS_NAME": "Hermel",
//    "SecondShift": "No"
//  },
//  {
//    "number": 859,
//    "Mohafaza": "Baalbeck-Hermel",
//    "Caza": "El Hermel",
//    "name": "El Hermel Secondary public school",
//    "LATITUDE": 34.398932162,
//    "LONGITUDE": 36.381187603,
//    "ACS_CODE": 54111,
//    "CAD_CODE": 54001,
//    "ACS_NAME": "Hermel",
//    "SecondShift": "No"
//  },
//  {
//    "number": 860,
//    "Mohafaza": "Baalbeck-Hermel",
//    "Caza": "El Hermel",
//    "name": "El Hermel First Intermediate public school",
//    "LATITUDE": 34.389916163,
//    "LONGITUDE": 36.395253689,
//    "ACS_CODE": 54111,
//    "CAD_CODE": 54001,
//    "ACS_NAME": "Hermel",
//    "SecondShift": "Yes"
//  },
//  {
//    "number": 862,
//    "Mohafaza": "Baalbeck-Hermel",
//    "Caza": "El Hermel",
//    "name": "El Hermel Second Intermediate Public School",
//    "LATITUDE": 34.389449074,
//    "LONGITUDE": 36.378570625,
//    "ACS_CODE": 54111,
//    "CAD_CODE": 54001,
//    "ACS_NAME": "Hermel",
//    "SecondShift": "No"
//  },
//  {
//    "number": 866,
//    "Mohafaza": "Baalbeck-Hermel",
//    "Caza": "El Hermel",
//    "name": "Beit El Tashm public school",
//    "LATITUDE": 34.394299151,
//    "LONGITUDE": 36.38338763,
//    "ACS_CODE": 54111,
//    "CAD_CODE": 54001,
//    "ACS_NAME": "Hermel",
//    "SecondShift": "No"
//  },
//  {
//    "number": 868,
//    "Mohafaza": "Baalbeck-Hermel",
//    "Caza": "El Hermel",
//    "name": "El Aasri public school",
//    "LATITUDE": 34.412299091,
//    "LONGITUDE": 36.410487686,
//    "ACS_CODE": 54111,
//    "CAD_CODE": 54001,
//    "ACS_NAME": "Hermel",
//    "SecondShift": "No"
//  },
//  {
//    "number": 434,
//    "Mohafaza": "North",
//    "Caza": "El Minieh-Dennie",
//    "name": "El Minyeh Secondary public school",
//    "LATITUDE": 34.491449158,
//    "LONGITUDE": 35.938487596,
//    "ACS_CODE": 37271,
//    "CAD_CODE": 37020,
//    "ACS_NAME": "Minie",
//    "SecondShift": "No"
//  },
//  {
//    "number": 436,
//    "Mohafaza": "North",
//    "Caza": "El Minieh-Dennie",
//    "name": "El Minyeh Al Maqaleh Mixed Public School",
//    "LATITUDE": 34.475829271,
//    "LONGITUDE": 35.938211879,
//    "ACS_CODE": 37271,
//    "CAD_CODE": 37020,
//    "ACS_NAME": "Minie",
//    "SecondShift": "Yes"
//  },
//  {
//    "number": 437,
//    "Mohafaza": "North",
//    "Caza": "El Minieh-Dennie",
//    "name": "El Minyeh Mixed Kinder Garten",
//    "LATITUDE": 34.471799153,
//    "LONGITUDE": 35.939837635,
//    "ACS_CODE": 37271,
//    "CAD_CODE": 37020,
//    "ACS_NAME": "Minie",
//    "SecondShift": "No"
//  },
//  {
//    "number": 438,
//    "Mohafaza": "North",
//    "Caza": "El Minieh-Dennie",
//    "name": "El Minyeh El Hekr Mixed public school",
//    "LATITUDE": 34.493599093,
//    "LONGITUDE": 35.938070617,
//    "ACS_CODE": 37271,
//    "CAD_CODE": 37020,
//    "ACS_NAME": "Minie",
//    "SecondShift": "No"
//  },
//  {
//    "number": 439,
//    "Mohafaza": "North",
//    "Caza": "El Minieh-Dennie",
//    "name": "El Minyeh Balat public school for Boys",
//    "LATITUDE": 34.46874915,
//    "LONGITUDE": 35.936553652,
//    "ACS_CODE": 37271,
//    "CAD_CODE": 37020,
//    "ACS_NAME": "Minie",
//    "SecondShift": "No"
//  },
//  {
//    "number": 440,
//    "Mohafaza": "North",
//    "Caza": "El Minieh-Dennie",
//    "name": "El Minyeh Balat public school for Girls",
//    "LATITUDE": 34.469299157,
//    "LONGITUDE": 35.937170704,
//    "ACS_CODE": 37271,
//    "CAD_CODE": 37020,
//    "ACS_NAME": "Minie",
//    "SecondShift": "No"
//  },
//  {
//    "number": 452,
//    "Mohafaza": "North",
//    "Caza": "El Minieh-Dennie",
//    "name": "Al Nabi Kzaiber Mixed Public School",
//    "LATITUDE": 34.483899145,
//    "LONGITUDE": 35.951470638,
//    "ACS_CODE": 37271,
//    "CAD_CODE": 37020,
//    "ACS_NAME": "Minie",
//    "SecondShift": "Yes"
//  },
//  {
//    "number": 620,
//    "Mohafaza": "Akkar",
//    "Caza": "Akkar",
//    "name": "Fnaydek Public School for Girls",
//    "LATITUDE": 34.475599135,
//    "LONGITUDE": 36.182470626,
//    "ACS_CODE": 35353,
//    "CAD_CODE": "35167ND",
//    "ACS_NAME": "Fnaydeq",
//    "SecondShift": "No"
//  },
//  {
//    "number": 621,
//    "Mohafaza": "Akkar",
//    "Caza": "Akkar",
//    "name": "Fnaydek Public School for Boys",
//    "LATITUDE": 34.475099112,
//    "LONGITUDE": 36.183370618,
//    "ACS_CODE": 35353,
//    "CAD_CODE": "35167ND",
//    "ACS_NAME": "Fnaydeq",
//    "SecondShift": "Yes"
//  },
//  {
//    "number": 622,
//    "Mohafaza": "Akkar",
//    "Caza": "Akkar",
//    "name": "Fnaydek Al Gharbiya Mixed Public School",
//    "LATITUDE": 34.485799159,
//    "LONGITUDE": 36.177370637,
//    "ACS_CODE": 35353,
//    "CAD_CODE": "35167ND",
//    "ACS_NAME": "Fnaydeq",
//    "SecondShift": "No"
//  },
//  {
//    "number": 623,
//    "Mohafaza": "Akkar",
//    "Caza": "Akkar",
//    "name": "Fnaydek Secondary Public School",
//    "LATITUDE": 34.47489916,
//    "LONGITUDE": 36.178070599,
//    "ACS_CODE": 35353,
//    "CAD_CODE": "35167ND",
//    "ACS_NAME": "Fnaydeq",
//    "SecondShift": "No"
//  },
//  {
//    "number": 633,
//    "Mohafaza": "Akkar",
//    "Caza": "Akkar",
//    "name": "Shan Mixed public school",
//    "LATITUDE": 34.480699118,
//    "LONGITUDE": 36.112370704,
//    "ACS_CODE": 35320,
//    "CAD_CODE": "35134ND",
//    "ACS_NAME": "Chane",
//    "SecondShift": "No"
//  },
//  {
//    "number": 625,
//    "Mohafaza": "Akkar",
//    "Caza": "Akkar",
//    "name": "El Qorneh Mixed Public School",
//    "LATITUDE": 34.476399094,
//    "LONGITUDE": 36.169870621,
//    "ACS_CODE": 35352,
//    "CAD_CODE": "35152ND",
//    "ACS_NAME": "Qornet Aakkar",
//    "SecondShift": "No"
//  },
//  {
//    "number": 632,
//    "Mohafaza": "Akkar",
//    "Caza": "Akkar",
//    "name": "Kherbet El Jered Mixed public school",
//    "LATITUDE": 34.478899102,
//    "LONGITUDE": 36.127170682,
//    "ACS_CODE": 35330,
//    "CAD_CODE": "35138ND",
//    "ACS_NAME": "Khreibet Aakkar",
//    "SecondShift": "No"
//  },
//  {
//    "number": 451,
//    "Mohafaza": "North",
//    "Caza": "El Minieh-Dennie",
//    "name": "Adwa Mixed Public School",
//    "LATITUDE": 34.451599107,
//    "LONGITUDE": 35.984270653,
//    "ACS_CODE": 37382,
//    "CAD_CODE": "37078ND",
//    "ACS_NAME": "Raouda-Aadoua",
//    "SecondShift": "No"
//  },
//  {
//    "number": 566,
//    "Mohafaza": "Akkar",
//    "Caza": "Akkar",
//    "name": "Bezal Mixed public school",
//    "LATITUDE": 34.471199095,
//    "LONGITUDE": 36.040970701,
//    "ACS_CODE": 35316,
//    "CAD_CODE": "35164ND",
//    "ACS_NAME": "Bzal",
//    "SecondShift": "No"
//  },
//  {
//    "number": 450,
//    "Mohafaza": "North",
//    "Caza": "El Minieh-Dennie",
//    "name": "Markabta Mixed Public School",
//    "LATITUDE": 34.452699129,
//    "LONGITUDE": 35.962770704,
//    "ACS_CODE": 37381,
//    "CAD_CODE": 37027,
//    "ACS_NAME": "Merkebta",
//    "SecondShift": "No"
//  },
//  {
//    "number": 563,
//    "Mohafaza": "Akkar",
//    "Caza": "Akkar",
//    "name": "Jdaidet Al Qaiteh Mixed Public School",
//    "LATITUDE": 34.464866084,
//    "LONGITUDE": 36.010987697,
//    "ACS_CODE": 35344,
//    "CAD_CODE": 35052,
//    "ACS_NAME": "Jdeidet El-Qaitaa",
//    "SecondShift": "Yes"
//  },
//  {
//    "number": 628,
//    "Mohafaza": "Akkar",
//    "Caza": "Akkar",
//    "name": "Beit Younes Mixed Public School",
//    "LATITUDE": 34.475999112,
//    "LONGITUDE": 36.149070781,
//    "ACS_CODE": 35321,
//    "CAD_CODE": 35097,
//    "ACS_NAME": "Beit Younes",
//    "SecondShift": "No"
//  },
//  {
//    "number": 568,
//    "Mohafaza": "Akkar",
//    "Caza": "Akkar",
//    "name": "Habshit Mixed public school",
//    "LATITUDE": 34.468599098,
//    "LONGITUDE": 36.089670645,
//    "ACS_CODE": 35326,
//    "CAD_CODE": "35159ND",
//    "ACS_NAME": "Habchit",
//    "SecondShift": "No"
//  },
//  {
//    "number": 618,
//    "Mohafaza": "Akkar",
//    "Caza": "Akkar",
//    "name": "Mishmesh Mixed Public School",
//    "LATITUDE": 34.470299079,
//    "LONGITUDE": 36.168470646,
//    "ACS_CODE": 35351,
//    "CAD_CODE": 35084,
//    "ACS_NAME": "Michmich Aakkar",
//    "SecondShift": "No"
//  },
//  {
//    "number": 619,
//    "Mohafaza": "Akkar",
//    "Caza": "Akkar",
//    "name": "Wata Mishmesh Mixed Public School",
//    "LATITUDE": 34.457999122,
//    "LONGITUDE": 36.173270615,
//    "ACS_CODE": 35351,
//    "CAD_CODE": 35084,
//    "ACS_NAME": "Michmich Aakkar",
//    "SecondShift": "No"
//  },
//  {
//    "number": 626,
//    "Mohafaza": "Akkar",
//    "Caza": "Akkar",
//    "name": "Beit Ayoub Mixed Public School",
//    "LATITUDE": 34.472899101,
//    "LONGITUDE": 36.160870609,
//    "ACS_CODE": 35337,
//    "CAD_CODE": 35104,
//    "ACS_NAME": "Beit Ayoub",
//    "SecondShift": "No"
//  },
//  {
//    "number": 567,
//    "Mohafaza": "Akkar",
//    "Caza": "Akkar",
//    "name": "Safinet Al Qaiteh Mixed public school",
//    "LATITUDE": 34.460699114,
//    "LONGITUDE": 36.032670706,
//    "ACS_CODE": 35324,
//    "CAD_CODE": 35054,
//    "ACS_NAME": "Sfaynet El-Qaitaa",
//    "SecondShift": "No"
//  },
//  {
//    "number": 449,
//    "Mohafaza": "North",
//    "Caza": "El Minieh-Dennie",
//    "name": "Al Nabi Youchaa Mixed Public School",
//    "LATITUDE": 34.462899101,
//    "LONGITUDE": 35.93937063,
//    "ACS_CODE": 37261,
//    "CAD_CODE": 37045,
//    "ACS_NAME": "Nabi Youcheaa",
//    "SecondShift": "Yes"
//  },
//  {
//    "number": 457,
//    "Mohafaza": "North",
//    "Caza": "El Minieh-Dennie",
//    "name": "Karam El Akhrass Mixed public school",
//    "LATITUDE": 34.459263083,
//    "LONGITUDE": 35.924143689,
//    "ACS_CODE": 37261,
//    "CAD_CODE": 37045,
//    "ACS_NAME": "Nabi Youcheaa",
//    "SecondShift": "No"
//  },
//  {
//    "number": 629,
//    "Mohafaza": "Akkar",
//    "Caza": "Akkar",
//    "name": "Hrar Mixed Public School",
//    "LATITUDE": 34.459599104,
//    "LONGITUDE": 36.124070644,
//    "ACS_CODE": 35328,
//    "CAD_CODE": "35203ND",
//    "ACS_NAME": "Hrar",
//    "SecondShift": "Yes"
//  },
//  {
//    "number": 630,
//    "Mohafaza": "Akkar",
//    "Caza": "Akkar",
//    "name": "Al Zaaroura Mixed Public School",
//    "LATITUDE": 34.455599158,
//    "LONGITUDE": 36.138370666,
//    "ACS_CODE": 35328,
//    "CAD_CODE": "35203ND",
//    "ACS_NAME": "Hrar",
//    "SecondShift": "No"
//  },
//  {
//    "number": 454,
//    "Mohafaza": "North",
//    "Caza": "El Minieh-Dennie",
//    "name": "Deir Emar public school for Boys",
//    "LATITUDE": 34.461799125,
//    "LONGITUDE": 35.895470688,
//    "ACS_CODE": 37241,
//    "CAD_CODE": 37018,
//    "ACS_NAME": "Deir Aammar",
//    "SecondShift": "Yes"
//  },
//  {
//    "number": 455,
//    "Mohafaza": "North",
//    "Caza": "El Minieh-Dennie",
//    "name": "Deir Emar public school for Girls",
//    "LATITUDE": 34.456699157,
//    "LONGITUDE": 35.903070601,
//    "ACS_CODE": 37241,
//    "CAD_CODE": 37018,
//    "ACS_NAME": "Deir Aammar",
//    "SecondShift": "No"
//  },
//  {
//    "number": 456,
//    "Mohafaza": "North",
//    "Caza": "El Minieh-Dennie",
//    "name": "Deir Ammar Mixed Public Kindergarten",
//    "LATITUDE": 34.462399089,
//    "LONGITUDE": 35.895070603,
//    "ACS_CODE": 37241,
//    "CAD_CODE": 37018,
//    "ACS_NAME": "Deir Aammar",
//    "SecondShift": "No"
//  },
//  {
//    "number": 569,
//    "Mohafaza": "Akkar",
//    "Caza": "Akkar",
//    "name": "Qabiit Mixed public school",
//    "LATITUDE": 34.449099119,
//    "LONGITUDE": 36.097470603,
//    "ACS_CODE": 35325,
//    "CAD_CODE": "35163ND",
//    "ACS_NAME": "Qabaait",
//    "SecondShift": "No"
//  },
//  {
//    "number": 441,
//    "Mohafaza": "North",
//    "Caza": "El Minieh-Dennie",
//    "name": "Al Baddawi Public School for Girls",
//    "LATITUDE": 34.453982094,
//    "LONGITUDE": 35.872820673,
//    "ACS_CODE": 37231,
//    "CAD_CODE": 37017,
//    "ACS_NAME": "Beddaoui",
//    "SecondShift": "No"
//  },
//  {
//    "number": 442,
//    "Mohafaza": "North",
//    "Caza": "El Minieh-Dennie",
//    "name": "Al Baddawi Public School for Boys",
//    "LATITUDE": 34.453899107,
//    "LONGITUDE": 35.868570623,
//    "ACS_CODE": 37231,
//    "CAD_CODE": 37017,
//    "ACS_NAME": "Beddaoui",
//    "SecondShift": "Yes"
//  },
//  {
//    "number": 443,
//    "Mohafaza": "North",
//    "Caza": "El Minieh-Dennie",
//    "name": "Al Badawi First Mixed Public Kindergarten",
//    "LATITUDE": 34.453849128,
//    "LONGITUDE": 35.868353626,
//    "ACS_CODE": 37231,
//    "CAD_CODE": 37017,
//    "ACS_NAME": "Beddaoui",
//    "SecondShift": "No"
//  },
//  {
//    "number": 384,
//    "Mohafaza": "North",
//    "Caza": "Tripoli",
//    "name": "Saba Zreik Secondary Public School For Boys",
//    "LATITUDE": 34.446149156,
//    "LONGITUDE": 35.818553595,
//    "ACS_CODE": 31186,
//    "CAD_CODE": 31014,
//    "ACS_NAME": "Mina Jardin",
//    "SecondShift": "No"
//  },
//  {
//    "number": 387,
//    "Mohafaza": "North",
//    "Caza": "Tripoli",
//    "name": "First Public School for Girls",
//    "LATITUDE": 34.447283121,
//    "LONGITUDE": 35.830964702,
//    "ACS_CODE": 31186,
//    "CAD_CODE": 31014,
//    "ACS_NAME": "Mina Jardin",
//    "SecondShift": "No"
//  },
//  {
//    "number": 388,
//    "Mohafaza": "North",
//    "Caza": "Tripoli",
//    "name": "An Nour Mixed Public School",
//    "LATITUDE": 34.443532142,
//    "LONGITUDE": 35.817470656,
//    "ACS_CODE": 31186,
//    "CAD_CODE": 31014,
//    "ACS_NAME": "Mina Jardin",
//    "SecondShift": "No"
//  },
//  {
//    "number": 389,
//    "Mohafaza": "North",
//    "Caza": "Tripoli",
//    "name": "Adnan Zaki Darwish Public School For Boys",
//    "LATITUDE": 34.447582131,
//    "LONGITUDE": 35.820420677,
//    "ACS_CODE": 31186,
//    "CAD_CODE": 31014,
//    "ACS_NAME": "Mina Jardin",
//    "SecondShift": "Yes"
//  },
//  {
//    "number": 392,
//    "Mohafaza": "North",
//    "Caza": "Tripoli",
//    "name": "Al Nahda Public School for Girls",
//    "LATITUDE": 34.447316092,
//    "LONGITUDE": 35.820970692,
//    "ACS_CODE": 31186,
//    "CAD_CODE": 31014,
//    "ACS_NAME": "Mina Jardin",
//    "SecondShift": "No"
//  },
//  {
//    "number": 394,
//    "Mohafaza": "North",
//    "Caza": "Tripoli",
//    "name": "Al Mina Third Public Kindergarten",
//    "LATITUDE": 34.447049132,
//    "LONGITUDE": 35.830120639,
//    "ACS_CODE": 31186,
//    "CAD_CODE": 31014,
//    "ACS_NAME": "Mina Jardin",
//    "SecondShift": "No"
//  },
//  {
//    "number": 361,
//    "Mohafaza": "North",
//    "Caza": "Tripoli",
//    "name": "Al Jdaydeh Public School For Girls",
//    "LATITUDE": 34.439749097,
//    "LONGITUDE": 35.831820678,
//    "ACS_CODE": 31166,
//    "CAD_CODE": 31015,
//    "ACS_NAME": "Trablous jardins",
//    "SecondShift": "No"
//  },
//  {
//    "number": 371,
//    "Mohafaza": "North",
//    "Caza": "Tripoli",
//    "name": "Tripoli Secondary Public School For Girls",
//    "LATITUDE": 34.444439157,
//    "LONGITUDE": 35.844960595,
//    "ACS_CODE": 31166,
//    "CAD_CODE": 31015,
//    "ACS_NAME": "Trablous jardins",
//    "SecondShift": "No"
//  },
//  {
//    "number": 372,
//    "Mohafaza": "North",
//    "Caza": "Tripoli",
//    "name": "Al Morabi Hassan Al hajjah Secondary Public School - Before noon",
//    "LATITUDE": 34.443976157,
//    "LONGITUDE": 35.836447595,
//    "ACS_CODE": 31166,
//    "CAD_CODE": 31015,
//    "ACS_NAME": "Trablous jardins",
//    "SecondShift": "No"
//  },
//  {
//    "number": 376,
//    "Mohafaza": "North",
//    "Caza": "Tripoli",
//    "name": "Al Zahiriya Public School For Boys",
//    "LATITUDE": 34.44309913,
//    "LONGITUDE": 35.842890647,
//    "ACS_CODE": 31166,
//    "CAD_CODE": 31015,
//    "ACS_NAME": "Trablous jardins",
//    "SecondShift": "No"
//  },
//  {
//    "number": 382,
//    "Mohafaza": "North",
//    "Caza": "Tripoli",
//    "name": "Al Tebbaneh Mixed Kindergarten",
//    "LATITUDE": 34.443016133,
//    "LONGITUDE": 35.843503606,
//    "ACS_CODE": 31166,
//    "CAD_CODE": 31015,
//    "ACS_NAME": "Trablous jardins",
//    "SecondShift": "No"
//  },
//  {
//    "number": 391,
//    "Mohafaza": "North",
//    "Caza": "Tripoli",
//    "name": "Ra'fat Al Hussaini Public School for Boys",
//    "LATITUDE": 34.453766154,
//    "LONGITUDE": 35.811053702,
//    "ACS_CODE": 31181,
//    "CAD_CODE": 31013,
//    "ACS_NAME": "Mina N:3",
//    "SecondShift": "No"
//  },
//  {
//    "number": 396,
//    "Mohafaza": "North",
//    "Caza": "Tripoli",
//    "name": "Rawdat Al Mina Second Mixed Public School",
//    "LATITUDE": 34.454366147,
//    "LONGITUDE": 35.810053607,
//    "ACS_CODE": 31181,
//    "CAD_CODE": 31013,
//    "ACS_NAME": "Mina N:3",
//    "SecondShift": "No"
//  },
//  {
//    "number": 667,
//    "Mohafaza": "North",
//    "Caza": "Zgharta",
//    "name": "Hraikes Mixed Public School",
//    "LATITUDE": 34.454699084,
//    "LONGITUDE": 35.931270685,
//    "ACS_CODE": 33287,
//    "CAD_CODE": 33063,
//    "ACS_NAME": "Hraiqis",
//    "SecondShift": "No"
//  },
//  {
//    "number": 390,
//    "Mohafaza": "North",
//    "Caza": "Tripoli",
//    "name": "Al Mina First Public Kindergarten",
//    "LATITUDE": 34.448299089,
//    "LONGITUDE": 35.816903641,
//    "ACS_CODE": 31171,
//    "CAD_CODE": 31011,
//    "ACS_NAME": "Mina N:1",
//    "SecondShift": "No"
//  },
//  {
//    "number": 395,
//    "Mohafaza": "North",
//    "Caza": "Tripoli",
//    "name": "Botros Dourah",
//    "LATITUDE": 34.447732128,
//    "LONGITUDE": 35.8151877,
//    "ACS_CODE": 31171,
//    "CAD_CODE": 31011,
//    "ACS_NAME": "Mina N:1",
//    "SecondShift": "No"
//  },
//  {
//    "number": 383,
//    "Mohafaza": "North",
//    "Caza": "Tripoli",
//    "name": "Andre Nahhas Secondary Public School - For Girls Al Mina",
//    "LATITUDE": 34.448569156,
//    "LONGITUDE": 35.809870595,
//    "ACS_CODE": 31176,
//    "CAD_CODE": 31012,
//    "ACS_NAME": "Mina N:2",
//    "SecondShift": "No"
//  },
//  {
//    "number": 385,
//    "Mohafaza": "North",
//    "Caza": "Tripoli",
//    "name": "Al Hayat Public School for Girls",
//    "LATITUDE": 34.449299151,
//    "LONGITUDE": 35.812353657,
//    "ACS_CODE": 31176,
//    "CAD_CODE": 31012,
//    "ACS_NAME": "Mina N:2",
//    "SecondShift": "No"
//  },
//  {
//    "number": 386,
//    "Mohafaza": "North",
//    "Caza": "Tripoli",
//    "name": "Al Tahzibiya Public School for Girls",
//    "LATITUDE": 34.45118213,
//    "LONGITUDE": 35.81385365,
//    "ACS_CODE": 31176,
//    "CAD_CODE": 31012,
//    "ACS_NAME": "Mina N:2",
//    "SecondShift": "No"
//  },
//  {
//    "number": 393,
//    "Mohafaza": "North",
//    "Caza": "Tripoli",
//    "name": "An Nahda Public School for Boys",
//    "LATITUDE": 34.448249104,
//    "LONGITUDE": 35.811787603,
//    "ACS_CODE": 31176,
//    "CAD_CODE": 31012,
//    "ACS_NAME": "Mina N:2",
//    "SecondShift": "No"
//  },
//  {
//    "number": 669,
//    "Mohafaza": "North",
//    "Caza": "Zgharta",
//    "name": "Al Fawar Mixed Public School",
//    "LATITUDE": 34.431999107,
//    "LONGITUDE": 35.885670627,
//    "ACS_CODE": 33129,
//    "CAD_CODE": 33002,
//    "ACS_NAME": "Mejdlaiya Zgharta",
//    "SecondShift": "No"
//  },
//  {
//    "number": 681,
//    "Mohafaza": "North",
//    "Caza": "Zgharta",
//    "name": "Mijdlaya Mixed Public School",
//    "LATITUDE": 34.4175991,
//    "LONGITUDE": 35.872970796,
//    "ACS_CODE": 33129,
//    "CAD_CODE": 33002,
//    "ACS_NAME": "Mejdlaiya Zgharta",
//    "SecondShift": "No"
//  },
//  {
//    "number": 682,
//    "Mohafaza": "North",
//    "Caza": "Zgharta",
//    "name": "El Ayrouniyeh Mixed Public School",
//    "LATITUDE": 34.426902139,
//    "LONGITUDE": 35.877388484,
//    "ACS_CODE": 33129,
//    "CAD_CODE": 33002,
//    "ACS_NAME": "Mejdlaiya Zgharta",
//    "SecondShift": "Yes"
//  },
//  {
//    "number": 850,
//    "Mohafaza": "Baalbeck-Hermel",
//    "Caza": "El Hermel",
//    "name": "Jiwar El Hashish Public school",
//    "LATITUDE": 34.456816096,
//    "LONGITUDE": 36.36348764,
//    "ACS_CODE": 54119,
//    "CAD_CODE": 54003,
//    "ACS_NAME": "Zighrine",
//    "SecondShift": "No"
//  },
//  {
//    "number": 851,
//    "Mohafaza": "Baalbeck-Hermel",
//    "Caza": "El Hermel",
//    "name": "Al Sharbine Intermediate School",
//    "LATITUDE": 34.455332136,
//    "LONGITUDE": 36.356437654,
//    "ACS_CODE": 54119,
//    "CAD_CODE": 54003,
//    "ACS_NAME": "Zighrine",
//    "SecondShift": "No"
//  },
//  {
//    "number": 853,
//    "Mohafaza": "Baalbeck-Hermel",
//    "Caza": "El Hermel",
//    "name": "El Kwakh public school",
//    "LATITUDE": 34.426816134,
//    "LONGITUDE": 36.362037631,
//    "ACS_CODE": 54119,
//    "CAD_CODE": 54003,
//    "ACS_NAME": "Zighrine",
//    "SecondShift": "No"
//  },
//  {
//    "number": 854,
//    "Mohafaza": "Baalbeck-Hermel",
//    "Caza": "El Hermel",
//    "name": "Zeghrine Tahta public school",
//    "LATITUDE": 34.42198209,
//    "LONGITUDE": 36.348153681,
//    "ACS_CODE": 54119,
//    "CAD_CODE": 54003,
//    "ACS_NAME": "Zighrine",
//    "SecondShift": "No"
//  },
//  {
//    "number": 419,
//    "Mohafaza": "North",
//    "Caza": "Tripoli",
//    "name": "Abi Feras El Hamadani Mixed public school",
//    "LATITUDE": 34.442982095,
//    "LONGITUDE": 35.854970632,
//    "ACS_CODE": 31111,
//    "CAD_CODE": 31016,
//    "ACS_NAME": "Trablous Ez-Zeitoun",
//    "SecondShift": "No"
//  },
//  {
//    "number": 420,
//    "Mohafaza": "North",
//    "Caza": "Tripoli",
//    "name": "Selaiman El Boustani Intermediate public school for Girls",
//    "LATITUDE": 34.43986612,
//    "LONGITUDE": 35.851803663,
//    "ACS_CODE": 31111,
//    "CAD_CODE": 31016,
//    "ACS_NAME": "Trablous Ez-Zeitoun",
//    "SecondShift": "No"
//  },
//  {
//    "number": 423,
//    "Mohafaza": "North",
//    "Caza": "Tripoli",
//    "name": "Ibn Rushd public school for Girls",
//    "LATITUDE": 34.439299157,
//    "LONGITUDE": 35.854503682,
//    "ACS_CODE": 31111,
//    "CAD_CODE": 31016,
//    "ACS_NAME": "Trablous Ez-Zeitoun",
//    "SecondShift": "No"
//  },
//  {
//    "number": 424,
//    "Mohafaza": "North",
//    "Caza": "Tripoli",
//    "name": "Daher El Mogher Kinder Garden",
//    "LATITUDE": 34.434216151,
//    "LONGITUDE": 35.847820697,
//    "ACS_CODE": 31111,
//    "CAD_CODE": 31016,
//    "ACS_NAME": "Trablous Ez-Zeitoun",
//    "SecondShift": "No"
//  },
//  {
//    "number": 427,
//    "Mohafaza": "North",
//    "Caza": "Tripoli",
//    "name": "Sleiman Al Boustany Public School for Boys",
//    "LATITUDE": 34.431282096,
//    "LONGITUDE": 35.851670648,
//    "ACS_CODE": 31111,
//    "CAD_CODE": 31016,
//    "ACS_NAME": "Trablous Ez-Zeitoun",
//    "SecondShift": "Yes"
//  },
//  {
//    "number": 429,
//    "Mohafaza": "North",
//    "Caza": "Tripoli",
//    "name": "Al Farabi Public School for Boys",
//    "LATITUDE": 34.433616123,
//    "LONGITUDE": 35.847987615,
//    "ACS_CODE": 31111,
//    "CAD_CODE": 31016,
//    "ACS_NAME": "Trablous Ez-Zeitoun",
//    "SecondShift": "No"
//  },
//  {
//    "number": 430,
//    "Mohafaza": "North",
//    "Caza": "Tripoli",
//    "name": "Al Quba Public Kindergarten",
//    "LATITUDE": 34.431699149,
//    "LONGITUDE": 35.851520703,
//    "ACS_CODE": 31111,
//    "CAD_CODE": 31016,
//    "ACS_NAME": "Trablous Ez-Zeitoun",
//    "SecondShift": "No"
//  },
//  {
//    "number": 432,
//    "Mohafaza": "North",
//    "Caza": "Tripoli",
//    "name": "Ibn Sina Intermediate for Boys",
//    "LATITUDE": 34.431249105,
//    "LONGITUDE": 35.851637651,
//    "ACS_CODE": 31111,
//    "CAD_CODE": 31016,
//    "ACS_NAME": "Trablous Ez-Zeitoun",
//    "SecondShift": "No"
//  },
//  {
//    "number": 433,
//    "Mohafaza": "North",
//    "Caza": "Tripoli",
//    "name": "El Kobeh Mixed Secondary public school",
//    "LATITUDE": 34.434782157,
//    "LONGITUDE": 35.859820596,
//    "ACS_CODE": 31111,
//    "CAD_CODE": 31016,
//    "ACS_NAME": "Trablous Ez-Zeitoun",
//    "SecondShift": "No"
//  },
//  {
//    "number": 448,
//    "Mohafaza": "North",
//    "Caza": "Tripoli",
//    "name": "George Sarraf Secondary public school",
//    "LATITUDE": 34.423466156,
//    "LONGITUDE": 35.834487596,
//    "ACS_CODE": 31111,
//    "CAD_CODE": 31016,
//    "ACS_NAME": "Trablous Ez-Zeitoun",
//    "SecondShift": "No"
//  },
//  {
//    "number": 355,
//    "Mohafaza": "North",
//    "Caza": "Tripoli",
//    "name": "Al Fadila Public School for Boys",
//    "LATITUDE": 34.423469126,
//    "LONGITUDE": 35.834470668,
//    "ACS_CODE": 31111,
//    "CAD_CODE": 31016,
//    "ACS_NAME": "Trablous Ez-Zeitoun",
//    "SecondShift": "No"
//  },
//  {
//    "number": 356,
//    "Mohafaza": "North",
//    "Caza": "Tripoli",
//    "name": "Al Fadila Public School for Girls",
//    "LATITUDE": 34.42347914,
//    "LONGITUDE": 35.834440672,
//    "ACS_CODE": 31111,
//    "CAD_CODE": 31016,
//    "ACS_NAME": "Trablous Ez-Zeitoun",
//    "SecondShift": "Yes"
//  },
//  {
//    "number": 400,
//    "Mohafaza": "North",
//    "Caza": "Tripoli",
//    "name": "Abi Samra First For Girls",
//    "LATITUDE": 34.429699143,
//    "LONGITUDE": 35.841620698,
//    "ACS_CODE": 31111,
//    "CAD_CODE": 31016,
//    "ACS_NAME": "Trablous Ez-Zeitoun",
//    "SecondShift": "No"
//  },
//  {
//    "number": 401,
//    "Mohafaza": "North",
//    "Caza": "Tripoli",
//    "name": "El Salah Public School For Girls",
//    "LATITUDE": 34.426599137,
//    "LONGITUDE": 35.845537003,
//    "ACS_CODE": 31111,
//    "CAD_CODE": 31016,
//    "ACS_NAME": "Trablous Ez-Zeitoun",
//    "SecondShift": "No"
//  },
//  {
//    "number": 402,
//    "Mohafaza": "North",
//    "Caza": "Tripoli",
//    "name": "An Nour Public School for Girls",
//    "LATITUDE": 34.426699077,
//    "LONGITUDE": 35.842587667,
//    "ACS_CODE": 31111,
//    "CAD_CODE": 31016,
//    "ACS_NAME": "Trablous Ez-Zeitoun",
//    "SecondShift": "No"
//  },
//  {
//    "number": 404,
//    "Mohafaza": "North",
//    "Caza": "Tripoli",
//    "name": "Al Arz Public School for Boys",
//    "LATITUDE": 34.426016119,
//    "LONGITUDE": 35.841303598,
//    "ACS_CODE": 31111,
//    "CAD_CODE": 31016,
//    "ACS_NAME": "Trablous Ez-Zeitoun",
//    "SecondShift": "No"
//  },
//  {
//    "number": 405,
//    "Mohafaza": "North",
//    "Caza": "Tripoli",
//    "name": "Al Ghazali Public School for Boys",
//    "LATITUDE": 34.429737151,
//    "LONGITUDE": 35.842876637,
//    "ACS_CODE": 31111,
//    "CAD_CODE": 31016,
//    "ACS_NAME": "Trablous Ez-Zeitoun",
//    "SecondShift": "No"
//  },
//  {
//    "number": 406,
//    "Mohafaza": "North",
//    "Caza": "Tripoli",
//    "name": "Ibrahim Yazegi Public School for Boys",
//    "LATITUDE": 34.428482095,
//    "LONGITUDE": 35.842653681,
//    "ACS_CODE": 31111,
//    "CAD_CODE": 31016,
//    "ACS_NAME": "Trablous Ez-Zeitoun",
//    "SecondShift": "No"
//  },
//  {
//    "number": 407,
//    "Mohafaza": "North",
//    "Caza": "Tripoli",
//    "name": "El Tadrib Al Tarbawi Public School For Girls",
//    "LATITUDE": 34.426016124,
//    "LONGITUDE": 35.845870643,
//    "ACS_CODE": 31111,
//    "CAD_CODE": 31016,
//    "ACS_NAME": "Trablous Ez-Zeitoun",
//    "SecondShift": "No"
//  },
//  {
//    "number": 408,
//    "Mohafaza": "North",
//    "Caza": "Tripoli",
//    "name": "Ibn Khaldoun Mixed Public School",
//    "LATITUDE": 34.416149118,
//    "LONGITUDE": 35.844170617,
//    "ACS_CODE": 31111,
//    "CAD_CODE": 31016,
//    "ACS_NAME": "Trablous Ez-Zeitoun",
//    "SecondShift": "Yes"
//  },
//  {
//    "number": 409,
//    "Mohafaza": "North",
//    "Caza": "Tripoli",
//    "name": "El Tarbiya Al Haditha Public School For Girls",
//    "LATITUDE": 34.426632133,
//    "LONGITUDE": 35.845687647,
//    "ACS_CODE": 31111,
//    "CAD_CODE": 31016,
//    "ACS_NAME": "Trablous Ez-Zeitoun",
//    "SecondShift": "Yes"
//  },
//  {
//    "number": 410,
//    "Mohafaza": "North",
//    "Caza": "Tripoli",
//    "name": "Al Arz Public School for Girls",
//    "LATITUDE": 34.429382082,
//    "LONGITUDE": 35.845453707,
//    "ACS_CODE": 31111,
//    "CAD_CODE": 31016,
//    "ACS_NAME": "Trablous Ez-Zeitoun",
//    "SecondShift": "No"
//  },
//  {
//    "number": 411,
//    "Mohafaza": "North",
//    "Caza": "Tripoli",
//    "name": "Princess Nasab Public School for Girls",
//    "LATITUDE": 34.426666122,
//    "LONGITUDE": 35.845653667,
//    "ACS_CODE": 31111,
//    "CAD_CODE": 31016,
//    "ACS_NAME": "Trablous Ez-Zeitoun",
//    "SecondShift": "No"
//  },
//  {
//    "number": 413,
//    "Mohafaza": "North",
//    "Caza": "Tripoli",
//    "name": "Tripoli Al Haddadin Secondary Public Schoo For Girls",
//    "LATITUDE": 34.422882156,
//    "LONGITUDE": 35.841520596,
//    "ACS_CODE": 31111,
//    "CAD_CODE": 31016,
//    "ACS_NAME": "Trablous Ez-Zeitoun",
//    "SecondShift": "No"
//  },
//  {
//    "number": 414,
//    "Mohafaza": "North",
//    "Caza": "Tripoli",
//    "name": "Abi Samra First Public Kindergarten",
//    "LATITUDE": 34.428749075,
//    "LONGITUDE": 35.841487688,
//    "ACS_CODE": 31111,
//    "CAD_CODE": 31016,
//    "ACS_NAME": "Trablous Ez-Zeitoun",
//    "SecondShift": "No"
//  },
//  {
//    "number": 415,
//    "Mohafaza": "North",
//    "Caza": "Tripoli",
//    "name": "Abi Samra Model Kindergarten",
//    "LATITUDE": 34.426616081,
//    "LONGITUDE": 35.844653682,
//    "ACS_CODE": 31111,
//    "CAD_CODE": 31016,
//    "ACS_NAME": "Trablous Ez-Zeitoun",
//    "SecondShift": "No"
//  },
//  {
//    "number": 487,
//    "Mohafaza": "North",
//    "Caza": "El Minieh-Dennie",
//    "name": "Karhayah Mixed public school",
//    "LATITUDE": 34.441199073,
//    "LONGITUDE": 36.078770637,
//    "ACS_CODE": 37360,
//    "CAD_CODE": "37076ND",
//    "ACS_NAME": "Qarhaiya",
//    "SecondShift": "No"
//  },
//  {
//    "number": 422,
//    "Mohafaza": "North",
//    "Caza": "Tripoli",
//    "name": "El Kobeh public school for Girls",
//    "LATITUDE": 34.434349068,
//    "LONGITUDE": 35.848720662,
//    "ACS_CODE": 31151,
//    "CAD_CODE": 31009,
//    "ACS_NAME": "Trablous El-Qobbe",
//    "SecondShift": "No"
//  },
//  {
//    "number": 425,
//    "Mohafaza": "North",
//    "Caza": "Tripoli",
//    "name": "Al Diya' Public School for Girls",
//    "LATITUDE": 34.435816134,
//    "LONGITUDE": 35.849837672,
//    "ACS_CODE": 31151,
//    "CAD_CODE": 31009,
//    "ACS_NAME": "Trablous El-Qobbe",
//    "SecondShift": "No"
//  },
//  {
//    "number": 431,
//    "Mohafaza": "North",
//    "Caza": "Tripoli",
//    "name": "El Kobeh Rl Jadidah public school for Girls",
//    "LATITUDE": 34.440966109,
//    "LONGITUDE": 35.851487692,
//    "ACS_CODE": 31151,
//    "CAD_CODE": 31009,
//    "ACS_NAME": "Trablous El-Qobbe",
//    "SecondShift": "No"
//  },
//  {
//    "number": 417,
//    "Mohafaza": "North",
//    "Caza": "Tripoli",
//    "name": "Lokman Mixed Public School",
//    "LATITUDE": 34.440659888,
//    "LONGITUDE": 35.847574077,
//    "ACS_CODE": 31161,
//    "CAD_CODE": 31008,
//    "ACS_NAME": "Trablous et Tabbaneh",
//    "SecondShift": "No"
//  },
//  {
//    "number": 418,
//    "Mohafaza": "North",
//    "Caza": "Tripoli",
//    "name": "Lokman Public School for Girls",
//    "LATITUDE": 34.441282144,
//    "LONGITUDE": 35.848953615,
//    "ACS_CODE": 31161,
//    "CAD_CODE": 31008,
//    "ACS_NAME": "Trablous et Tabbaneh",
//    "SecondShift": "No"
//  },
//  {
//    "number": 486,
//    "Mohafaza": "North",
//    "Caza": "El Minieh-Dennie",
//    "name": "Dabaal Mixed Public School",
//    "LATITUDE": 34.438999093,
//    "LONGITUDE": 36.071270681,
//    "ACS_CODE": 37356,
//    "CAD_CODE": "37073ND",
//    "ACS_NAME": "Debaael",
//    "SecondShift": "No"
//  },
//  {
//    "number": 472,
//    "Mohafaza": "North",
//    "Caza": "El Minieh-Dennie",
//    "name": "Azki Mixed Public School",
//    "LATITUDE": 34.433099098,
//    "LONGITUDE": 35.984670706,
//    "ACS_CODE": 37361,
//    "CAD_CODE": 37028,
//    "ACS_NAME": "Aazqai",
//    "SecondShift": "No"
//  },
//  {
//    "number": 502,
//    "Mohafaza": "North",
//    "Caza": "El Minieh-Dennie",
//    "name": "Btormaz Mixed Public School",
//    "LATITUDE": 34.421199107,
//    "LONGITUDE": 36.035570638,
//    "ACS_CODE": 37343,
//    "CAD_CODE": 37064,
//    "ACS_NAME": "Btermaz",
//    "SecondShift": "No"
//  },
//  {
//    "number": 631,
//    "Mohafaza": "North",
//    "Caza": "El Minieh-Dennie",
//    "name": "Ouyoun El Samak Mixed Public School",
//    "LATITUDE": 34.438799107,
//    "LONGITUDE": 36.007570626,
//    "ACS_CODE": 37343,
//    "CAD_CODE": 37064,
//    "ACS_NAME": "Btermaz",
//    "SecondShift": "No"
//  },
//  {
//    "number": 357,
//    "Mohafaza": "North",
//    "Caza": "Tripoli",
//    "name": "May Public School For Girls",
//    "LATITUDE": 34.438239077,
//    "LONGITUDE": 35.838830685,
//    "ACS_CODE": 31121,
//    "CAD_CODE": 31002,
//    "ACS_NAME": "Trablous Et-Tell",
//    "SecondShift": "No"
//  },
//  {
//    "number": 358,
//    "Mohafaza": "North",
//    "Caza": "Tripoli",
//    "name": "Tal Al Jadida Public School for Girls Tripoli",
//    "LATITUDE": 34.436559146,
//    "LONGITUDE": 35.834930653,
//    "ACS_CODE": 31121,
//    "CAD_CODE": 31002,
//    "ACS_NAME": "Trablous Et-Tell",
//    "SecondShift": "No"
//  },
//  {
//    "number": 359,
//    "Mohafaza": "North",
//    "Caza": "Tripoli",
//    "name": "Model Public School for Girls",
//    "LATITUDE": 34.436941097,
//    "LONGITUDE": 35.834683701,
//    "ACS_CODE": 31121,
//    "CAD_CODE": 31002,
//    "ACS_NAME": "Trablous Et-Tell",
//    "SecondShift": "No"
//  },
//  {
//    "number": 363,
//    "Mohafaza": "North",
//    "Caza": "Tripoli",
//    "name": "Al Jadida Public School for Boys",
//    "LATITUDE": 34.438739125,
//    "LONGITUDE": 35.840250639,
//    "ACS_CODE": 31121,
//    "CAD_CODE": 31002,
//    "ACS_NAME": "Trablous Et-Tell",
//    "SecondShift": "Yes"
//  },
//  {
//    "number": 366,
//    "Mohafaza": "North",
//    "Caza": "Tripoli",
//    "name": "Al Fayhaa  Public School for Girls",
//    "LATITUDE": 34.437289132,
//    "LONGITUDE": 35.839030663,
//    "ACS_CODE": 31121,
//    "CAD_CODE": 31002,
//    "ACS_NAME": "Trablous Et-Tell",
//    "SecondShift": "No"
//  },
//  {
//    "number": 367,
//    "Mohafaza": "North",
//    "Caza": "Tripoli",
//    "name": "Model Public School for Boys",
//    "LATITUDE": 34.438849113,
//    "LONGITUDE": 35.838640657,
//    "ACS_CODE": 31121,
//    "CAD_CODE": 31002,
//    "ACS_NAME": "Trablous Et-Tell",
//    "SecondShift": "No"
//  },
//  {
//    "number": 368,
//    "Mohafaza": "North",
//    "Caza": "Tripoli",
//    "name": "Nasr Public School for Girls",
//    "LATITUDE": 34.439049137,
//    "LONGITUDE": 35.839320648,
//    "ACS_CODE": 31121,
//    "CAD_CODE": 31002,
//    "ACS_NAME": "Trablous Et-Tell",
//    "SecondShift": "No"
//  },
//  {
//    "number": 369,
//    "Mohafaza": "North",
//    "Caza": "Tripoli",
//    "name": "An Neshee Al Jadid Public School for Boys",
//    "LATITUDE": 34.437169125,
//    "LONGITUDE": 35.840070635,
//    "ACS_CODE": 31121,
//    "CAD_CODE": 31002,
//    "ACS_NAME": "Trablous Et-Tell",
//    "SecondShift": "No"
//  },
//  {
//    "number": 370,
//    "Mohafaza": "North",
//    "Caza": "Tripoli",
//    "name": "Amir Fakhreddine El Maani for Boys",
//    "LATITUDE": 34.436009134,
//    "LONGITUDE": 35.836290638,
//    "ACS_CODE": 31121,
//    "CAD_CODE": 31002,
//    "ACS_NAME": "Trablous Et-Tell",
//    "SecondShift": "No"
//  },
//  {
//    "number": 374,
//    "Mohafaza": "North",
//    "Caza": "Tripoli",
//    "name": "Gebran Khalil Gebran For Girls",
//    "LATITUDE": 34.439959141,
//    "LONGITUDE": 35.841440697,
//    "ACS_CODE": 31121,
//    "CAD_CODE": 31002,
//    "ACS_NAME": "Trablous Et-Tell",
//    "SecondShift": "No"
//  },
//  {
//    "number": 377,
//    "Mohafaza": "North",
//    "Caza": "Tripoli",
//    "name": "Rawdat El Tal - Al Zahriya Mixed Public School",
//    "LATITUDE": 34.438532151,
//    "LONGITUDE": 35.832770657,
//    "ACS_CODE": 31121,
//    "CAD_CODE": 31002,
//    "ACS_NAME": "Trablous Et-Tell",
//    "SecondShift": "No"
//  },
//  {
//    "number": 378,
//    "Mohafaza": "North",
//    "Caza": "Tripoli",
//    "name": "Al Zahiriya Public School For Girls",
//    "LATITUDE": 34.440069122,
//    "LONGITUDE": 35.840570678,
//    "ACS_CODE": 31121,
//    "CAD_CODE": 31002,
//    "ACS_NAME": "Trablous Et-Tell",
//    "SecondShift": "No"
//  },
//  {
//    "number": 379,
//    "Mohafaza": "North",
//    "Caza": "Tripoli",
//    "name": "Al Taqaddom Public School for Boys",
//    "LATITUDE": 34.441519172,
//    "LONGITUDE": 35.844943923,
//    "ACS_CODE": 31121,
//    "CAD_CODE": 31002,
//    "ACS_NAME": "Trablous Et-Tell",
//    "SecondShift": "No"
//  },
//  {
//    "number": 381,
//    "Mohafaza": "North",
//    "Caza": "Tripoli",
//    "name": "Al Morabi Fadel El Mokadem Public School For Girls",
//    "LATITUDE": 34.441469156,
//    "LONGITUDE": 35.843940596,
//    "ACS_CODE": 31121,
//    "CAD_CODE": 31002,
//    "ACS_NAME": "Trablous Et-Tell",
//    "SecondShift": "No"
//  },
//  {
//    "number": 668,
//    "Mohafaza": "North",
//    "Caza": "Zgharta",
//    "name": "Alma Mixed Elementary Public School",
//    "LATITUDE": 34.426498539,
//    "LONGITUDE": 35.897670651,
//    "ACS_CODE": 33133,
//    "CAD_CODE": 33003,
//    "ACS_NAME": "Aalma",
//    "SecondShift": "No"
//  },
//  {
//    "number": 375,
//    "Mohafaza": "North",
//    "Caza": "Tripoli",
//    "name": "Farah Antoun Public School For Boys",
//    "LATITUDE": 34.439769138,
//    "LONGITUDE": 35.842950638,
//    "ACS_CODE": 31156,
//    "CAD_CODE": 31005,
//    "ACS_NAME": "Trablous Ez-Zahrieh",
//    "SecondShift": "No"
//  },
//  {
//    "number": 421,
//    "Mohafaza": "North",
//    "Caza": "Tripoli",
//    "name": "El Ahed El Jaid public school for Girls",
//    "LATITUDE": 34.434966086,
//    "LONGITUDE": 35.847637682,
//    "ACS_CODE": 31141,
//    "CAD_CODE": 31007,
//    "ACS_NAME": "Trablous Es-Souayqa",
//    "SecondShift": "No"
//  },
//  {
//    "number": 380,
//    "Mohafaza": "North",
//    "Caza": "Tripoli",
//    "name": "Al Huda Public School for Boys",
//    "LATITUDE": 34.433749096,
//    "LONGITUDE": 35.845503688,
//    "ACS_CODE": 31141,
//    "CAD_CODE": 31007,
//    "ACS_NAME": "Trablous Es-Souayqa",
//    "SecondShift": "No"
//  },
//  {
//    "number": 416,
//    "Mohafaza": "North",
//    "Caza": "Tripoli",
//    "name": "Al Mustaqbal Public School for Girls",
//    "LATITUDE": 34.434532122,
//    "LONGITUDE": 35.846737623,
//    "ACS_CODE": 31141,
//    "CAD_CODE": 31007,
//    "ACS_NAME": "Trablous Es-Souayqa",
//    "SecondShift": "No"
//  },
//  {
//    "number": 398,
//    "Mohafaza": "North",
//    "Caza": "Tripoli",
//    "name": "An Nejmeh Mixed Kindergarten",
//    "LATITUDE": 34.433549114,
//    "LONGITUDE": 35.843387624,
//    "ACS_CODE": 31131,
//    "CAD_CODE": 31004,
//    "ACS_NAME": "Trablous El Mhatra",
//    "SecondShift": "No"
//  },
//  {
//    "number": 403,
//    "Mohafaza": "North",
//    "Caza": "Tripoli",
//    "name": "Al Fayha' Public School for Boys",
//    "LATITUDE": 34.433516106,
//    "LONGITUDE": 35.84338761,
//    "ACS_CODE": 31131,
//    "CAD_CODE": 31004,
//    "ACS_NAME": "Trablous El Mhatra",
//    "SecondShift": "No"
//  },
//  {
//    "number": 360,
//    "Mohafaza": "North",
//    "Caza": "Tripoli",
//    "name": "Tripoli First Intermediate Public School for Girls",
//    "LATITUDE": 34.434489084,
//    "LONGITUDE": 35.838950612,
//    "ACS_CODE": 31116,
//    "CAD_CODE": 31001,
//    "ACS_NAME": "Trablous El-Haddadine, El-Hadid, El-Mharta",
//    "SecondShift": "No"
//  },
//  {
//    "number": 362,
//    "Mohafaza": "North",
//    "Caza": "Tripoli",
//    "name": "Dawhat Al Adab Public School for Girls",
//    "LATITUDE": 34.434059076,
//    "LONGITUDE": 35.83964068,
//    "ACS_CODE": 31116,
//    "CAD_CODE": 31001,
//    "ACS_NAME": "Trablous El-Haddadine, El-Hadid, El-Mharta",
//    "SecondShift": "No"
//  },
//  {
//    "number": 364,
//    "Mohafaza": "North",
//    "Caza": "Tripoli",
//    "name": "Tripoli First Public School for Boys",
//    "LATITUDE": 34.433749077,
//    "LONGITUDE": 35.839240635,
//    "ACS_CODE": 31116,
//    "CAD_CODE": 31001,
//    "ACS_NAME": "Trablous El-Haddadine, El-Hadid, El-Mharta",
//    "SecondShift": "No"
//  },
//  {
//    "number": 397,
//    "Mohafaza": "North",
//    "Caza": "Tripoli",
//    "name": "Al Taqqadom Public School for Girls",
//    "LATITUDE": 34.43029914,
//    "LONGITUDE": 35.839337666,
//    "ACS_CODE": 31116,
//    "CAD_CODE": 31001,
//    "ACS_NAME": "Trablous El-Haddadine, El-Hadid, El-Mharta",
//    "SecondShift": "No"
//  },
//  {
//    "number": 399,
//    "Mohafaza": "North",
//    "Caza": "Tripoli",
//    "name": "Al Morabi Mawaheb Osta Secondary Public School For Boys - Prevouisely Tripoli Al Haddadin",
//    "LATITUDE": 34.430966157,
//    "LONGITUDE": 35.841453596,
//    "ACS_CODE": 31116,
//    "CAD_CODE": 31001,
//    "ACS_NAME": "Trablous El-Haddadine, El-Hadid, El-Mharta",
//    "SecondShift": "No"
//  },
//  {
//    "number": 464,
//    "Mohafaza": "North",
//    "Caza": "El Minieh-Dennie",
//    "name": "El Watyeh Mixed Public School",
//    "LATITUDE": 34.433799134,
//    "LONGITUDE": 36.008470656,
//    "ACS_CODE": 37345,
//    "CAD_CODE": 37032,
//    "ACS_NAME": "Harf Es-Sayad",
//    "SecondShift": "No"
//  },
//  {
//    "number": 488,
//    "Mohafaza": "North",
//    "Caza": "El Minieh-Dennie",
//    "name": "Jairoun Mixed Public School",
//    "LATITUDE": 34.432199125,
//    "LONGITUDE": 36.107070655,
//    "ACS_CODE": 37358,
//    "CAD_CODE": "37075ND",
//    "ACS_NAME": "Jayroun",
//    "SecondShift": "No"
//  },
//  {
//    "number": 677,
//    "Mohafaza": "North",
//    "Caza": "Zgharta",
//    "name": "Harf Ardeh Mixed Public School",
//    "LATITUDE": 34.401899076,
//    "LONGITUDE": 35.910370629,
//    "ACS_CODE": 33123,
//    "CAD_CODE": 33006,
//    "ACS_NAME": "Arde",
//    "SecondShift": "No"
//  },
//  {
//    "number": 678,
//    "Mohafaza": "North",
//    "Caza": "Zgharta",
//    "name": "Ardeh Mixed Public School",
//    "LATITUDE": 34.407799102,
//    "LONGITUDE": 35.915570705,
//    "ACS_CODE": 33123,
//    "CAD_CODE": 33006,
//    "ACS_NAME": "Arde",
//    "SecondShift": "Yes"
//  },
//  {
//    "number": 459,
//    "Mohafaza": "North",
//    "Caza": "El Minieh-Dennie",
//    "name": "Bakhoun Mixed Intermediate Public School",
//    "LATITUDE": 34.409999087,
//    "LONGITUDE": 36.017770664,
//    "ACS_CODE": 37391,
//    "CAD_CODE": 37034,
//    "ACS_NAME": "Bakhaaoun",
//    "SecondShift": "No"
//  },
//  {
//    "number": 460,
//    "Mohafaza": "North",
//    "Caza": "El Minieh-Dennie",
//    "name": "Bakhoun Intermediate public school for Boys",
//    "LATITUDE": 34.406499141,
//    "LONGITUDE": 36.016370696,
//    "ACS_CODE": 37391,
//    "CAD_CODE": 37034,
//    "ACS_NAME": "Bakhaaoun",
//    "SecondShift": "No"
//  },
//  {
//    "number": 461,
//    "Mohafaza": "North",
//    "Caza": "El Minieh-Dennie",
//    "name": "Bakhoun Secondary public school",
//    "LATITUDE": 34.413799159,
//    "LONGITUDE": 36.013670598,
//    "ACS_CODE": 37391,
//    "CAD_CODE": 37034,
//    "ACS_NAME": "Bakhaaoun",
//    "SecondShift": "No"
//  },
//  {
//    "number": 462,
//    "Mohafaza": "North",
//    "Caza": "El Minieh-Dennie",
//    "name": "Hakleet Mixed public school",
//    "LATITUDE": 34.406799128,
//    "LONGITUDE": 36.019670684,
//    "ACS_CODE": 37391,
//    "CAD_CODE": 37034,
//    "ACS_NAME": "Bakhaaoun",
//    "SecondShift": "No"
//  },
//  {
//    "number": 664,
//    "Mohafaza": "North",
//    "Caza": "Zgharta",
//    "name": "Meryata Public School",
//    "LATITUDE": 34.415399123,
//    "LONGITUDE": 35.929887696,
//    "ACS_CODE": 33271,
//    "CAD_CODE": 33007,
//    "ACS_NAME": "Miriata",
//    "SecondShift": "Yes"
//  },
//  {
//    "number": 665,
//    "Mohafaza": "North",
//    "Caza": "Zgharta",
//    "name": "Meryata Secondary Public School",
//    "LATITUDE": 34.416699157,
//    "LONGITUDE": 35.928670597,
//    "ACS_CODE": 33271,
//    "CAD_CODE": 33007,
//    "ACS_NAME": "Miriata",
//    "SecondShift": "No"
//  },
//  {
//    "number": 483,
//    "Mohafaza": "North",
//    "Caza": "El Minieh-Dennie",
//    "name": "Kfarbanine Mixed Public School- Hay Maabi",
//    "LATITUDE": 34.420499118,
//    "LONGITUDE": 36.085870633,
//    "ACS_CODE": 37355,
//    "CAD_CODE": 37046,
//    "ACS_NAME": "Haouaret-Miniye",
//    "SecondShift": "No"
//  },
//  {
//    "number": 484,
//    "Mohafaza": "North",
//    "Caza": "El Minieh-Dennie",
//    "name": "Hawarah Mixed public school",
//    "LATITUDE": 34.419199087,
//    "LONGITUDE": 36.073370681,
//    "ACS_CODE": 37355,
//    "CAD_CODE": 37046,
//    "ACS_NAME": "Haouaret-Miniye",
//    "SecondShift": "No"
//  },
//  {
//    "number": 485,
//    "Mohafaza": "North",
//    "Caza": "El Minieh-Dennie",
//    "name": "Beit Haouik Mixed Public School",
//    "LATITUDE": 34.423930109,
//    "LONGITUDE": 36.070708667,
//    "ACS_CODE": 37357,
//    "CAD_CODE": "37074ND",
//    "ACS_NAME": "Beit Haouik",
//    "SecondShift": "No"
//  },
//  {
//    "number": 470,
//    "Mohafaza": "North",
//    "Caza": "El Minieh-Dennie",
//    "name": "Kfarhabou Mixed Public School",
//    "LATITUDE": 34.412999126,
//    "LONGITUDE": 35.956570683,
//    "ACS_CODE": 37365,
//    "CAD_CODE": 37023,
//    "ACS_NAME": "Kfar Habou",
//    "SecondShift": "Yes"
//  },
//  {
//    "number": 468,
//    "Mohafaza": "North",
//    "Caza": "El Minieh-Dennie",
//    "name": "Mrah Al Sraj Mixed Intermediate Public School",
//    "LATITUDE": 34.419312104,
//    "LONGITUDE": 35.995525625,
//    "ACS_CODE": 37351,
//    "CAD_CODE": 37030,
//    "ACS_NAME": "Mrah Es-Srayj",
//    "SecondShift": "Yes"
//  },
//  {
//    "number": 489,
//    "Mohafaza": "North",
//    "Caza": "El Minieh-Dennie",
//    "name": "Al Qamamine Mixed Public School",
//    "LATITUDE": 34.420499146,
//    "LONGITUDE": 36.138270643,
//    "ACS_CODE": 37344,
//    "CAD_CODE": "37071ND",
//    "ACS_NAME": "Qemmamine",
//    "SecondShift": "No"
//  },
//  {
//    "number": 463,
//    "Mohafaza": "North",
//    "Caza": "El Minieh-Dennie",
//    "name": "Haref El Siyad Mixed public school",
//    "LATITUDE": 34.420399128,
//    "LONGITUDE": 36.021770657,
//    "ACS_CODE": 37345,
//    "CAD_CODE": 37032,
//    "ACS_NAME": "Harf Es-Sayad",
//    "SecondShift": "No"
//  },
//  {
//    "number": 697,
//    "Mohafaza": "North",
//    "Caza": "El Koura",
//    "name": "Dahr El Ain Mixed Public School",
//    "LATITUDE": 34.3904991,
//    "LONGITUDE": 35.84757067,
//    "ACS_CODE": 32185,
//    "CAD_CODE": 32001,
//    "ACS_NAME": "Ras Masqa",
//    "SecondShift": "Yes"
//  },
//  {
//    "number": 699,
//    "Mohafaza": "North",
//    "Caza": "El Koura",
//    "name": "Ras Maska Mixed Public School",
//    "LATITUDE": 34.397199141,
//    "LONGITUDE": 35.8306706,
//    "ACS_CODE": 32185,
//    "CAD_CODE": 32001,
//    "ACS_NAME": "Ras Masqa",
//    "SecondShift": "No"
//  },
//  {
//    "number": 501,
//    "Mohafaza": "North",
//    "Caza": "El Minieh-Dennie",
//    "name": "Taran Mixed Public School",
//    "LATITUDE": 34.407199094,
//    "LONGITUDE": 36.031270707,
//    "ACS_CODE": 37323,
//    "CAD_CODE": 37042,
//    "ACS_NAME": "tarane",
//    "SecondShift": "No"
//  },
//  {
//    "number": 473,
//    "Mohafaza": "North",
//    "Caza": "El Minieh-Dennie",
//    "name": "Ibn Haytham Intermediate Public School",
//    "LATITUDE": 34.404399076,
//    "LONGITUDE": 36.061870609,
//    "ACS_CODE": 37337,
//    "CAD_CODE": 37056,
//    "ACS_NAME": "Sfire",
//    "SecondShift": "No"
//  },
//  {
//    "number": 474,
//    "Mohafaza": "North",
//    "Caza": "El Minieh-Dennie",
//    "name": "Al Sfireh Intermediate Public School",
//    "LATITUDE": 34.399499111,
//    "LONGITUDE": 36.048870686,
//    "ACS_CODE": 37337,
//    "CAD_CODE": 37056,
//    "ACS_NAME": "Sfire",
//    "SecondShift": "Yes"
//  },
//  {
//    "number": 482,
//    "Mohafaza": "North",
//    "Caza": "El Minieh-Dennie",
//    "name": "Kfarbenine Mixed Intermediate Public School",
//    "LATITUDE": 34.405999156,
//    "LONGITUDE": 36.076070702,
//    "ACS_CODE": 37395,
//    "CAD_CODE": "37079ND",
//    "ACS_NAME": "Kfar Bibnine",
//    "SecondShift": "No"
//  },
//  {
//    "number": 469,
//    "Mohafaza": "North",
//    "Caza": "El Minieh-Dennie",
//    "name": "Harf Beit Zoud Mixed Public School",
//    "LATITUDE": 34.399140115,
//    "LONGITUDE": 35.986939662,
//    "ACS_CODE": 37349,
//    "CAD_CODE": 37065,
//    "ACS_NAME": "Beit Zoud",
//    "SecondShift": "No"
//  },
//  {
//    "number": 679,
//    "Mohafaza": "North",
//    "Caza": "Zgharta",
//    "name": "Rashiin Mixed Public School",
//    "LATITUDE": 34.398699097,
//    "LONGITUDE": 35.921070679,
//    "ACS_CODE": 33117,
//    "CAD_CODE": 33010,
//    "ACS_NAME": "Rachaaine",
//    "SecondShift": "No"
//  },
//  {
//    "number": 670,
//    "Mohafaza": "North",
//    "Caza": "Zgharta",
//    "name": "Zgharta First Intermediate Public School for Girls",
//    "LATITUDE": 34.398499094,
//    "LONGITUDE": 35.892970696,
//    "ACS_CODE": 33111,
//    "CAD_CODE": 33004,
//    "ACS_NAME": "Zgharta",
//    "SecondShift": "No"
//  },
//  {
//    "number": 671,
//    "Mohafaza": "North",
//    "Caza": "Zgharta",
//    "name": "Zgharta First Intermediate Public School for Boys",
//    "LATITUDE": 34.391599082,
//    "LONGITUDE": 35.897470643,
//    "ACS_CODE": 33111,
//    "CAD_CODE": 33004,
//    "ACS_NAME": "Zgharta",
//    "SecondShift": "No"
//  },
//  {
//    "number": 672,
//    "Mohafaza": "North",
//    "Caza": "Zgharta",
//    "name": "Zgharta Second Public School for Boys",
//    "LATITUDE": 34.40129907,
//    "LONGITUDE": 35.896170647,
//    "ACS_CODE": 33111,
//    "CAD_CODE": 33004,
//    "ACS_NAME": "Zgharta",
//    "SecondShift": "No"
//  },
//  {
//    "number": 673,
//    "Mohafaza": "North",
//    "Caza": "Zgharta",
//    "name": "Zgharta Model Public School",
//    "LATITUDE": 34.395799107,
//    "LONGITUDE": 35.894670648,
//    "ACS_CODE": 33111,
//    "CAD_CODE": 33004,
//    "ACS_NAME": "Zgharta",
//    "SecondShift": "Yes"
//  },
//  {
//    "number": 674,
//    "Mohafaza": "North",
//    "Caza": "Zgharta",
//    "name": "Zgharta Secondary Public School",
//    "LATITUDE": 34.399699157,
//    "LONGITUDE": 35.895770596,
//    "ACS_CODE": 33111,
//    "CAD_CODE": 33004,
//    "ACS_NAME": "Zgharta",
//    "SecondShift": "No"
//  },
//  {
//    "number": 675,
//    "Mohafaza": "North",
//    "Caza": "Zgharta",
//    "name": "Zgharta Second Public School for Girls",
//    "LATITUDE": 34.400499153,
//    "LONGITUDE": 35.894170645,
//    "ACS_CODE": 33111,
//    "CAD_CODE": 33004,
//    "ACS_NAME": "Zgharta",
//    "SecondShift": "No"
//  },
//  {
//    "number": 676,
//    "Mohafaza": "North",
//    "Caza": "Zgharta",
//    "name": "Zgharta Mixed Public Kindergarten",
//    "LATITUDE": 34.391599082,
//    "LONGITUDE": 35.897470643,
//    "ACS_CODE": 33111,
//    "CAD_CODE": 33004,
//    "ACS_NAME": "Zgharta",
//    "SecondShift": "No"
//  },
//  {
//    "number": 466,
//    "Mohafaza": "North",
//    "Caza": "El Minieh-Dennie",
//    "name": "Haql Al Azimeh Mixed Public School",
//    "LATITUDE": 34.39729907,
//    "LONGITUDE": 36.015770684,
//    "ACS_CODE": 37327,
//    "CAD_CODE": 37035,
//    "ACS_NAME": "Haql el Aazime",
//    "SecondShift": "No"
//  },
//  {
//    "number": 499,
//    "Mohafaza": "North",
//    "Caza": "El Minieh-Dennie",
//    "name": "Izal Mixed public school",
//    "LATITUDE": 34.379699203,
//    "LONGITUDE": 35.982070669,
//    "ACS_CODE": 37341,
//    "CAD_CODE": 37047,
//    "ACS_NAME": "Izal",
//    "SecondShift": "No"
//  },
//  {
//    "number": 506,
//    "Mohafaza": "North",
//    "Caza": "El Minieh-Dennie",
//    "name": "Harf Beit Daoud Mixed Public School",
//    "LATITUDE": 34.378499089,
//    "LONGITUDE": 35.961570607,
//    "ACS_CODE": 37341,
//    "CAD_CODE": 37047,
//    "ACS_NAME": "Izal",
//    "SecondShift": "No"
//  },
//  {
//    "number": 507,
//    "Mohafaza": "North",
//    "Caza": "El Minieh-Dennie",
//    "name": "Harf Beit Hasna Mixed Intermediate Public School",
//    "LATITUDE": 34.385858931,
//    "LONGITUDE": 35.960141232,
//    "ACS_CODE": 37341,
//    "CAD_CODE": 37047,
//    "ACS_NAME": "Izal",
//    "SecondShift": "No"
//  },
//  {
//    "number": 500,
//    "Mohafaza": "North",
//    "Caza": "El Minieh-Dennie",
//    "name": "El Kateen Mixed public school",
//    "LATITUDE": 34.395499089,
//    "LONGITUDE": 36.023170693,
//    "ACS_CODE": 37315,
//    "CAD_CODE": 37037,
//    "ACS_NAME": "Qattine-Miniye",
//    "SecondShift": "No"
//  },
//  {
//    "number": 444,
//    "Mohafaza": "North",
//    "Caza": "Tripoli",
//    "name": "Al Qalamoun Mixed Secondary Public School",
//    "LATITUDE": 34.389499155,
//    "LONGITUDE": 35.788237595,
//    "ACS_CODE": 31221,
//    "CAD_CODE": 31024,
//    "ACS_NAME": "Qalamoun",
//    "SecondShift": "No"
//  },
//  {
//    "number": 445,
//    "Mohafaza": "North",
//    "Caza": "Tripoli",
//    "name": "Al Qalamoun public school for Girls",
//    "LATITUDE": 34.38833213,
//    "LONGITUDE": 35.787220644,
//    "ACS_CODE": 31221,
//    "CAD_CODE": 31024,
//    "ACS_NAME": "Qalamoun",
//    "SecondShift": "No"
//  },
//  {
//    "number": 446,
//    "Mohafaza": "North",
//    "Caza": "Tripoli",
//    "name": "Al Qalamoun Public School for Boys",
//    "LATITUDE": 34.385399115,
//    "LONGITUDE": 35.782153603,
//    "ACS_CODE": 31221,
//    "CAD_CODE": 31024,
//    "ACS_NAME": "Qalamoun",
//    "SecondShift": "Yes"
//  },
//  {
//    "number": 447,
//    "Mohafaza": "North",
//    "Caza": "Tripoli",
//    "name": "Al Qalamoun Mixed Public Kindergarten",
//    "LATITUDE": 34.387599151,
//    "LONGITUDE": 35.787720621,
//    "ACS_CODE": 31221,
//    "CAD_CODE": 31024,
//    "ACS_NAME": "Qalamoun",
//    "SecondShift": "No"
//  },
//  {
//    "number": 700,
//    "Mohafaza": "North",
//    "Caza": "El Koura",
//    "name": "Barsa Mixed Public School",
//    "LATITUDE": 34.388099136,
//    "LONGITUDE": 35.832070699,
//    "ACS_CODE": 32187,
//    "CAD_CODE": 32005,
//    "ACS_NAME": "Barsa",
//    "SecondShift": "No"
//  },
//  {
//    "number": 498,
//    "Mohafaza": "North",
//    "Caza": "El Minieh-Dennie",
//    "name": "Asoun Mixed Public School",
//    "LATITUDE": 34.386899125,
//    "LONGITUDE": 36.014670659,
//    "ACS_CODE": 37313,
//    "CAD_CODE": 37036,
//    "ACS_NAME": "Aassoun",
//    "SecondShift": "No"
//  },
//  {
//    "number": 709,
//    "Mohafaza": "North",
//    "Caza": "El Koura",
//    "name": "Deddeh Mixed Public School",
//    "LATITUDE": 34.378399068,
//    "LONGITUDE": 35.799170652,
//    "ACS_CODE": 32179,
//    "CAD_CODE": 32003,
//    "ACS_NAME": "Dedde",
//    "SecondShift": "Yes"
//  },
//  {
//    "number": 710,
//    "Mohafaza": "North",
//    "Caza": "El Koura",
//    "name": "Deddeh Public School",
//    "LATITUDE": 34.377699156,
//    "LONGITUDE": 35.798670596,
//    "ACS_CODE": 32179,
//    "CAD_CODE": 32003,
//    "ACS_NAME": "Dedde",
//    "SecondShift": "No"
//  },
//  {
//    "number": 477,
//    "Mohafaza": "North",
//    "Caza": "El Minieh-Dennie",
//    "name": "Beit Al Faks Secondary public school",
//    "LATITUDE": 34.392399159,
//    "LONGITUDE": 36.052270599,
//    "ACS_CODE": 37329,
//    "CAD_CODE": 37044,
//    "ACS_NAME": "Beit El-Faqs",
//    "SecondShift": "No"
//  },
//  {
//    "number": 476,
//    "Mohafaza": "North",
//    "Caza": "El Minieh-Dennie",
//    "name": "Beit Al Faks Public School",
//    "LATITUDE": 34.39445663,
//    "LONGITUDE": 36.05431182,
//    "ACS_CODE": 37339,
//    "CAD_CODE": 37057,
//    "ACS_NAME": "Qarsaita",
//    "SecondShift": "No"
//  },
//  {
//    "number": 480,
//    "Mohafaza": "North",
//    "Caza": "El Minieh-Dennie",
//    "name": "Karsita Mixed public school",
//    "LATITUDE": 34.387499138,
//    "LONGITUDE": 36.05937068,
//    "ACS_CODE": 37339,
//    "CAD_CODE": 37057,
//    "ACS_NAME": "Qarsaita",
//    "SecondShift": "No"
//  },
//  {
//    "number": 479,
//    "Mohafaza": "North",
//    "Caza": "El Minieh-Dennie",
//    "name": "Ain El Tineh Mixed public school",
//    "LATITUDE": 34.390299151,
//    "LONGITUDE": 36.047471668,
//    "ACS_CODE": 37333,
//    "CAD_CODE": 37054,
//    "ACS_NAME": "Aain Et-Tine-Miniye",
//    "SecondShift": "No"
//  },
//  {
//    "number": 680,
//    "Mohafaza": "North",
//    "Caza": "Zgharta",
//    "name": "Asnoun Mixed Public School",
//    "LATITUDE": 34.386699113,
//    "LONGITUDE": 35.887670652,
//    "ACS_CODE": 33125,
//    "CAD_CODE": 33012,
//    "ACS_NAME": "Asnoun",
//    "SecondShift": "No"
//  },
//  {
//    "number": 508,
//    "Mohafaza": "North",
//    "Caza": "El Minieh-Dennie",
//    "name": "Deir Nabouh Mixed Public School",
//    "LATITUDE": 34.372299104,
//    "LONGITUDE": 35.929470694,
//    "ACS_CODE": 37377,
//    "CAD_CODE": 37031,
//    "ACS_NAME": "Deir Nbouh",
//    "SecondShift": "No"
//  },
//  {
//    "number": 471,
//    "Mohafaza": "North",
//    "Caza": "El Minieh-Dennie",
//    "name": "Sir El Dinniyeh Secondary Public School- Kfarhabou branch",
//    "LATITUDE": 34.38373641,
//    "LONGITUDE": 36.02732424,
//    "ACS_CODE": 37311,
//    "CAD_CODE": 37038,
//    "ACS_NAME": "Sir Ed-Danniye",
//    "SecondShift": "No"
//  },
//  {
//    "number": 490,
//    "Mohafaza": "North",
//    "Caza": "El Minieh-Dennie",
//    "name": "Sir El Dinniyeh Secondary Public School",
//    "LATITUDE": 34.384599158,
//    "LONGITUDE": 36.017870598,
//    "ACS_CODE": 37311,
//    "CAD_CODE": 37038,
//    "ACS_NAME": "Sir Ed-Danniye",
//    "SecondShift": "No"
//  },
//  {
//    "number": 491,
//    "Mohafaza": "North",
//    "Caza": "El Minieh-Dennie",
//    "name": "Sir public school for Girls",
//    "LATITUDE": 34.3867991,
//    "LONGITUDE": 36.03297067,
//    "ACS_CODE": 37311,
//    "CAD_CODE": 37038,
//    "ACS_NAME": "Sir Ed-Danniye",
//    "SecondShift": "No"
//  },
//  {
//    "number": 492,
//    "Mohafaza": "North",
//    "Caza": "El Minieh-Dennie",
//    "name": "Sir Mixed Intermediate public school",
//    "LATITUDE": 34.386199069,
//    "LONGITUDE": 36.027370605,
//    "ACS_CODE": 37311,
//    "CAD_CODE": 37038,
//    "ACS_NAME": "Sir Ed-Danniye",
//    "SecondShift": "Yes"
//  },
//  {
//    "number": 494,
//    "Mohafaza": "North",
//    "Caza": "El Minieh-Dennie",
//    "name": "Rawdat Fathiya Fatfat Mixed Public School",
//    "LATITUDE": 34.383099087,
//    "LONGITUDE": 36.028770613,
//    "ACS_CODE": 37311,
//    "CAD_CODE": 37038,
//    "ACS_NAME": "Sir Ed-Danniye",
//    "SecondShift": "No"
//  },
//  {
//    "number": 481,
//    "Mohafaza": "North",
//    "Caza": "El Minieh-Dennie",
//    "name": "Nemrine Mixed Public School",
//    "LATITUDE": 34.38449908,
//    "LONGITUDE": 36.050770674,
//    "ACS_CODE": 37325,
//    "CAD_CODE": 37058,
//    "ACS_NAME": "Mimrine",
//    "SecondShift": "No"
//  },
//  {
//    "number": 683,
//    "Mohafaza": "North",
//    "Caza": "Zgharta",
//    "name": "Kfarzaina Mixed Public School",
//    "LATITUDE": 34.376899088,
//    "LONGITUDE": 35.880770652,
//    "ACS_CODE": 33145,
//    "CAD_CODE": 33016,
//    "ACS_NAME": "Kfarzaina",
//    "SecondShift": "Yes"
//  },
//  {
//    "number": 495,
//    "Mohafaza": "North",
//    "Caza": "El Minieh-Dennie",
//    "name": "Bkarsouna Second Mixed Public School",
//    "LATITUDE": 34.376799113,
//    "LONGITUDE": 36.038470678,
//    "ACS_CODE": 37319,
//    "CAD_CODE": 37040,
//    "ACS_NAME": "Bqarsouna",
//    "SecondShift": "No"
//  },
//  {
//    "number": 496,
//    "Mohafaza": "North",
//    "Caza": "El Minieh-Dennie",
//    "name": "Bkarsouna First Mixed Public School",
//    "LATITUDE": 34.375699149,
//    "LONGITUDE": 36.039970616,
//    "ACS_CODE": 37319,
//    "CAD_CODE": 37040,
//    "ACS_NAME": "Bqarsouna",
//    "SecondShift": "Yes"
//  },
//  {
//    "number": 497,
//    "Mohafaza": "North",
//    "Caza": "El Minieh-Dennie",
//    "name": "Bkaasafrine Mixed Public School",
//    "LATITUDE": 34.377799136,
//    "LONGITUDE": 36.025970661,
//    "ACS_CODE": 37317,
//    "CAD_CODE": 37039,
//    "ACS_NAME": "Bqaa Sefrine",
//    "SecondShift": "No"
//  },
//  {
//    "number": 702,
//    "Mohafaza": "North",
//    "Caza": "El Koura",
//    "name": "Btouratij Mixed Public School",
//    "LATITUDE": 34.362299069,
//    "LONGITUDE": 35.834770619,
//    "ACS_CODE": 32169,
//    "CAD_CODE": 32007,
//    "ACS_NAME": "Btouratij",
//    "SecondShift": "No"
//  },
//  {
//    "number": 686,
//    "Mohafaza": "North",
//    "Caza": "Zgharta",
//    "name": "Iaal Mixed Public School",
//    "LATITUDE": 34.363499096,
//    "LONGITUDE": 35.911270637,
//    "ACS_CODE": 33141,
//    "CAD_CODE": 33022,
//    "ACS_NAME": "Iaal",
//    "SecondShift": "No"
//  },
//  {
//    "number": 704,
//    "Mohafaza": "North",
//    "Caza": "El Koura",
//    "name": "Jibran Makari Public School",
//    "LATITUDE": 34.359399119,
//    "LONGITUDE": 35.732170622,
//    "ACS_CODE": 32181,
//    "CAD_CODE": 32028,
//    "ACS_NAME": "Enfe",
//    "SecondShift": "No"
//  },
//  {
//    "number": 687,
//    "Mohafaza": "North",
//    "Caza": "Zgharta",
//    "name": "Marh Kfarsghab Mixed Public School",
//    "LATITUDE": 34.340099149,
//    "LONGITUDE": 35.905070607,
//    "ACS_CODE": 33155,
//    "CAD_CODE": 33023,
//    "ACS_NAME": "Morh Kfarsghab",
//    "SecondShift": "No"
//  },
//  {
//    "number": 688,
//    "Mohafaza": "North",
//    "Caza": "Zgharta",
//    "name": "Marh Kfarsghab Mixed Public Kindergarten",
//    "LATITUDE": 34.341699126,
//    "LONGITUDE": 35.906670617,
//    "ACS_CODE": 33155,
//    "CAD_CODE": 33023,
//    "ACS_NAME": "Morh Kfarsghab",
//    "SecondShift": "No"
//  },
//  {
//    "number": 684,
//    "Mohafaza": "North",
//    "Caza": "Zgharta",
//    "name": "Kfaryashit Mixed Public School",
//    "LATITUDE": 34.348299125,
//    "LONGITUDE": 35.895470641,
//    "ACS_CODE": 33153,
//    "CAD_CODE": 33024,
//    "ACS_NAME": "Kfaryachit",
//    "SecondShift": "No"
//  },
//  {
//    "number": 503,
//    "Mohafaza": "North",
//    "Caza": "El Minieh-Dennie",
//    "name": "Aymar Mixed Public School",
//    "LATITUDE": 34.352499107,
//    "LONGITUDE": 35.970670602,
//    "ACS_CODE": 37367,
//    "CAD_CODE": 37050,
//    "ACS_NAME": "Aaymar",
//    "SecondShift": "No"
//  },
//  {
//    "number": 707,
//    "Mohafaza": "North",
//    "Caza": "El Koura",
//    "name": "St. George Public School- Fih",
//    "LATITUDE": 34.350499097,
//    "LONGITUDE": 35.790870674,
//    "ACS_CODE": 32147,
//    "CAD_CODE": 32012,
//    "ACS_NAME": "Fiaa",
//    "SecondShift": "No"
//  },
//  {
//    "number": 694,
//    "Mohafaza": "North",
//    "Caza": "Zgharta",
//    "name": "Mezyara Mixed Public School",
//    "LATITUDE": 34.336699144,
//    "LONGITUDE": 35.926670693,
//    "ACS_CODE": 33251,
//    "CAD_CODE": 33036,
//    "ACS_NAME": "Miziara",
//    "SecondShift": "No"
//  },
//  {
//    "number": 888,
//    "Mohafaza": "Baalbeck-Hermel",
//    "Caza": "Baalbek",
//    "name": "Ras Baalbak intermediate public school",
//    "LATITUDE": 34.34719916,
//    "LONGITUDE": 36.470670698,
//    "ACS_CODE": 53241,
//    "CAD_CODE": "54006bis",
//    "ACS_NAME": "Qaa Baalbek",
//    "SecondShift": "Yes"
//  },
//  {
//    "number": 889,
//    "Mohafaza": "Baalbeck-Hermel",
//    "Caza": "Baalbek",
//    "name": "El Kaa intermediate public school",
//    "LATITUDE": 34.347199157,
//    "LONGITUDE": 36.470670589,
//    "ACS_CODE": 53241,
//    "CAD_CODE": "54006bis",
//    "ACS_NAME": "Qaa Baalbek",
//    "SecondShift": "Yes"
//  },
//  {
//    "number": 717,
//    "Mohafaza": "North",
//    "Caza": "El Koura",
//    "name": "Khalil Salem Bterram Secondary Public School",
//    "LATITUDE": 34.326299155,
//    "LONGITUDE": 35.812170597,
//    "ACS_CODE": 32119,
//    "CAD_CODE": 32016,
//    "ACS_NAME": "Bterram",
//    "SecondShift": "No"
//  },
//  {
//    "number": 718,
//    "Mohafaza": "North",
//    "Caza": "El Koura",
//    "name": "Bterram / Khalil Salem Public School",
//    "LATITUDE": 34.326399111,
//    "LONGITUDE": 35.812170602,
//    "ACS_CODE": 32119,
//    "CAD_CODE": 32016,
//    "ACS_NAME": "Bterram",
//    "SecondShift": "No"
//  },
//  {
//    "number": 886,
//    "Mohafaza": "Baalbeck-Hermel",
//    "Caza": "Baalbek",
//    "name": "Al Fakiha Intermediate Public School",
//    "LATITUDE": 34.257966113,
//    "LONGITUDE": 36.427320681,
//    "ACS_CODE": 53211,
//    "CAD_CODE": "53010bis",
//    "ACS_NAME": "Ras Baalbek Es-Sahel",
//    "SecondShift": "No"
//  },
//  {
//    "number": 887,
//    "Mohafaza": "Baalbeck-Hermel",
//    "Caza": "Baalbek",
//    "name": "Ras Baalbek Secondary Public School",
//    "LATITUDE": 34.257966161,
//    "LONGITUDE": 36.427320606,
//    "ACS_CODE": 53211,
//    "CAD_CODE": "53010bis",
//    "ACS_NAME": "Ras Baalbek Es-Sahel",
//    "SecondShift": "No"
//  },
//  {
//    "number": 706,
//    "Mohafaza": "North",
//    "Caza": "El Koura",
//    "name": "Barghoun Mixed Public School",
//    "LATITUDE": 34.342299098,
//    "LONGITUDE": 35.757270689,
//    "ACS_CODE": 32161,
//    "CAD_CODE": 32024,
//    "ACS_NAME": "Badbhoun",
//    "SecondShift": "No"
//  },